{
  "1": {
    "address": "AV NOSSA SENHORA DE COPACABANA, 709A, Rio de Janeiro - RJ, Brasil",
    "name": "1/2 - BANCO BRADESCO, NSC 709A - EX BANCO ITAÚ - BR 573",
    "lat": -22.9838915,
    "lon": -43.1906212
  },
  "2": {
    "address": "RUA BARATA RIBEIRO, 222,  Rio de Janeiro - RJ, Brasil",
    "name": "1/2 - CAIXA ECONÔMICA FEDERAL - BR 222",
    "lat": -22.965564,
    "lon": -43.181257
  },
  "3": {
    "address": "RUA BARATA RIBEIRO, 489,  Rio de Janeiro - RJ, Brasil",
    "name": "1/2 - CLUBE ISRAELITA BRASILEIRO (CIB) - BR 489",
    "lat": -22.9671598,
    "lon": -43.1834588
  },
  "4": {
    "address": "RUA TONELERO, 56,  Rio de Janeiro - RJ, Brasil",
    "name": "1/2 - COLÉGIO SAGRADO CORAÇÃO DE MARIA - T 56",
    "lat": -22.9644606,
    "lon": -43.1822126
  },
  "5": {
    "address": "RUA BARAO DE IPANEMA, 34,  Rio de Janeiro - RJ, Brasil",
    "name": "1/2 - ESCOLA MUNICIPAL DOUTOR CÓCIO BARCELLOS - BI 34",
    "lat": -22.9748405,
    "lon": -43.1891043
  },
  "6": {
    "address": "AVENIDA ATLANTICA, 3264, Rio de Janeiro - RJ, Brasil",
    "name": "1/2 - HOTEL OTHON PALACE - A 3264 - ANTIGO BANRISUL NSC 827",
    "lat": -22.9774125,
    "lon": -43.189208
  },
  "7": {
    "address": "RUA HILARIO DE GOUVEIA, 36,  Rio de Janeiro - RJ, Brasil",
    "name": "1/2 - IGREJA NOSSA SENHORA DE COPACABANA - HG 36",
    "lat": -22.9690297,
    "lon": -43.1834416
  },
  "8": {
    "address": "AV. NOSSA SENHORA DE COPACABANA, 1049-A,  Rio de Janeiro - RJ, Brasil",
    "name": "1/2 - INSS - NSC 1049",
    "lat": -22.9804461,
    "lon": -43.1910731
  },
  "9": {
    "address": "RUA BARÃO DE IPANEMA, N 85, Rio de Janeiro - RJ, Brasil",
    "name": "1/2 - PENSI - COLEGIO E CURSO - BI 85",
    "lat": -22.974705,
    "lon": -43.1901904
  },
  "10": {
    "address": "PRAÇA CARDEAL ARCOVERDE, S/N,  Rio de Janeiro - RJ, Brasil",
    "name": "1/2 ESCOLA MUNICIPAL SENADOR ALENCASTRO GUIMARÃES - PÇ CAV",
    "lat": -22.965072,
    "lon": -43.1810993
  },
  "11": {
    "address": "RUA ASSIS CARNEIRO, 520, Rio de Janeiro - RJ, Brasil",
    "name": "1ª IGREJA BATISTA DA PIEDADE",
    "lat": -22.8961506,
    "lon": -43.3128761
  },
  "12": {
    "address": "AV. NOSSA SENHORA DE COPACABANA, 709A, Rio de Janeiro - RJ, Brasil",
    "name": "2/2 - BANCO BRADESCO NSC 709A - EX BANCO ITAÚ - NSC 730",
    "lat": -22.9804461,
    "lon": -43.1910731
  },
  "13": {
    "address": "RUA BARATA RIBEIRO 222, Rio de Janeiro - RJ, Brasil",
    "name": "2/2 - CAIXA ECONOMICA FEDERAL, BR 222 - EX BRADESCO - BR 255",
    "lat": -22.965564,
    "lon": -43.181257
  },
  "14": {
    "address": "RUA BARATA RIBEIRO , N 489, Rio de Janeiro - RJ, Brasil",
    "name": "2/2 - CLUBE ISRAELITA BRASILEIRO -CIB - BR 489 - ANTIGO ITAÚ - SCA 143",
    "lat": -22.9634647,
    "lon": -43.1778411
  },
  "15": {
    "address": "RUA TONELERO, N 56, Rio de Janeiro - RJ, Brasil",
    "name": "2/2 - COLÉGIO SAGRADO CORAÇÃO DE MARIA - T 56 - ANTIGO ITAÚ - NSC 387",
    "lat": -22.968839,
    "lon": -43.189153
  },
  "16": {
    "address": "RUA BARÃO DE IPANEMA, N 34, Rio de Janeiro - RJ, Brasil",
    "name": "2/2 - E M DOUTOR CÓCIO BARCELLOS - BI 34 - ANTIGO BB - NSC 890",
    "lat": -22.974705,
    "lon": -43.1901904
  },
  "17": {
    "address": "PRAÇA CARDEAL ARCOVERDE, S/N, Rio de Janeiro - RJ, Brasil",
    "name": "2/2 - E M SENADOR ALENCASTRO GUIMARÃES -  ANTIGO AF",
    "lat": -22.965072,
    "lon": -43.1810993
  },
  "18": {
    "address": "AVENIDA ATLANTICA, 3264, Rio de Janeiro - RJ, Brasil",
    "name": "2/2 - HOTEL OTHON PALACE - A 3264 - ANTIGO SANTANDER NSC 804",
    "lat": -22.9774125,
    "lon": -43.189208
  },
  "19": {
    "address": "RUA HILÁRIO DE GOUVEIA, N 36, Rio de Janeiro - RJ, Brasil",
    "name": "2/2 - IGREJA N SENHORA DE COPACABANA - HG 36 - EX BRADESCO - NSC 581",
    "lat": -22.9690297,
    "lon": -43.1834416
  },
  "20": {
    "address": "AV. NOSSA SENHORA DE COPACABANA, 1049-A,  Rio de Janeiro - RJ, Brasil",
    "name": "2/2 - INSS - PREVIDÊNCIA SOCIAL, NSC 1049 - EX ITAÚ - NSC 921",
    "lat": -22.9804461,
    "lon": -43.1910731
  },
  "21": {
    "address": "RUA BARÃO DE IPANEMA, N 85, Rio de Janeiro - RJ, Brasil",
    "name": "2/2 - PENSI - COLEGIO E CURSO - BI 85 - ANTIGO BANCO BRASIL - NSC 890",
    "lat": -22.974705,
    "lon": -43.1901904
  },
  "22": {
    "address": "RUA DESEMBARGADOR IZIDRO 41, Rio de Janeiro - RJ, Brasil",
    "name": "8ª REGIÃO ADMINISTRATIVA",
    "lat": -22.9311884,
    "lon": -43.2344405
  },
  "23": {
    "address": "AV. BORGES DE MEDEIROS 829, Rio de Janeiro - RJ, Brasil",
    "name": "AABB",
    "lat": -22.9800615,
    "lon": -43.2167502
  },
  "24": {
    "address": "AVENIDA AFONSO ARINOS DE MELO FRANCO, 393, Rio de Janeiro - RJ, Brasil",
    "name": "ABM 1 - ASSOCIAÇÃO DE CONDOMÍNIOS RESIDENCIAIS BOSQUE MARAPENDI",
    "lat": -23.0053973,
    "lon": -43.3267908
  },
  "25": {
    "address": "RUA JORNALISTA HENRIQUE CORDEIRO, 180, Rio de Janeiro - RJ, Brasil",
    "name": "ABM 2 - ASSOCIAÇÃO DE CONDOMÍNIOS RESIDENCIAIS BOSQUE MARAPENDI",
    "lat": -23.0040345,
    "lon": -43.3247381
  },
  "26": {
    "address": "RUA DA LAPA N 73, Rio de Janeiro - RJ, Brasil",
    "name": "ACM - ASSOCIAÇÃO CRISTÃ DE MOÇOS DO RIO DE JANEIRO",
    "lat": -22.9169809,
    "lon": -43.1772222
  },
  "27": {
    "address": "AV. RODRIGUES ALVES, 81,  Rio de Janeiro - RJ, Brasil",
    "name": "ALFÂNDEGA DA RECEITA FEDERAL",
    "lat": -22.895087,
    "lon": -43.1847824
  },
  "28": {
    "address": "RUA MUNIZ BARRETO 746 / 746-A, Rio de Janeiro - RJ, Brasil",
    "name": "ALIANÇA FRANCESA DE BOTAFOGO",
    "lat": -22.9430544,
    "lon": -43.1832663
  },
  "29": {
    "address": "ATERRO DO COCOTÁ, S/N, Rio de Janeiro - RJ, Brasil",
    "name": "ARENINHA CULTURAL RENATO RUSSO",
    "lat": null,
    "lon": null
  },
  "30": {
    "address": "RUA BARÃO DE MESQUITA 872, Rio de Janeiro - RJ, Brasil",
    "name": "ASBAC - ASSOCIAÇÃO DOS SERVIDORES DO BANCO CENTRAL",
    "lat": -22.9223205,
    "lon": -43.2328143
  },
  "31": {
    "address": "AV. DOM HÉLDER CÂMARA 8484, Rio de Janeiro - RJ, Brasil",
    "name": "ASPOM ASSOC. BENEF. DOS SUBTEN. E SGTOS. DA PM",
    "lat": -22.8842166,
    "lon": -43.2911702
  },
  "32": {
    "address": "RUA HADDOCK LOBO 227, Rio de Janeiro - RJ, Brasil",
    "name": "ASSOCIACAO ATLÉTICA BANCO DO BRASIL",
    "lat": -22.9173814,
    "lon": -43.2110245
  },
  "33": {
    "address": "RUA MALDONADO 55, Rio de Janeiro - RJ, Brasil",
    "name": "ASSOCIACAO CRISTA DE MOCOS (ACM)",
    "lat": -22.8252572,
    "lon": -43.172124
  },
  "34": {
    "address": "RUA BARÃO DO BOM RETIRO 1954, Rio de Janeiro - RJ, Brasil",
    "name": "ASSOCIAÇÃO ATLÉTICA LIGHT",
    "lat": -22.9215271,
    "lon": -43.258707
  },
  "35": {
    "address": "RUA IBITURUNA 108, Rio de Janeiro - RJ, Brasil",
    "name": "ASSOCIAÇÃO EDUCACIONAL VEIGA DE ALMEIDA",
    "lat": -22.9131815,
    "lon": -43.2203323
  },
  "36": {
    "address": "RUA GASTÃO PENALVA 31, Rio de Janeiro - RJ, Brasil",
    "name": "ASSOCIAÇÃO ESPÍRITA RITA DE CÁSSIA",
    "lat": -22.9272184,
    "lon": -43.2516735
  },
  "37": {
    "address": "RUA DA GAMBOA, 227, Rio de Janeiro - RJ, Brasil",
    "name": "AÇÃO DA CIDADANIA NA VILA OLÍMPICA DA GAMBOA (ANTIGO CCJB)",
    "lat": -22.8960606,
    "lon": -43.19526
  },
  "38": {
    "address": "AV. DOM HÉLDER CÂMARA, 5597, Rio de Janeiro - RJ, Brasil",
    "name": "BANCO BRADESCO - AGÊNCIA CACHAMBI",
    "lat": -22.8824335,
    "lon": -43.2757906
  },
  "39": {
    "address": "AV. NOSSA SENHORA DE COPACABANA, 1018-A,  Rio de Janeiro - RJ, Brasil",
    "name": "BANCO BRADESCO - NSC 1018",
    "lat": -22.9804461,
    "lon": -43.1910731
  },
  "40": {
    "address": "AVENIDA NOSSA SENHORA DE COPACABANA, 120,  Rio de Janeiro - RJ, Brasil",
    "name": "BANCO BRADESCO - NSC 120",
    "lat": -22.9804461,
    "lon": -43.1910731
  },
  "41": {
    "address": "AV. NOSSA SENHORA DE COPACABANA 1380, Rio de Janeiro - RJ, Brasil",
    "name": "BANCO BRADESCO COPACABANA",
    "lat": -22.9804461,
    "lon": -43.1910731
  },
  "42": {
    "address": "RUA VISCONDE DE PIRAJÁ 216, Rio de Janeiro - RJ, Brasil",
    "name": "BANCO BRADESCO IPANEMA",
    "lat": -22.9842832,
    "lon": -43.201342
  },
  "43": {
    "address": "AV. ATAULFO DE PAIVA 794, Rio de Janeiro - RJ, Brasil",
    "name": "BANCO BRADESCO LEBLON PRIME",
    "lat": -22.983673,
    "lon": -43.216959
  },
  "44": {
    "address": "AV. ATAULFO DE PAIVA 368, Rio de Janeiro - RJ, Brasil",
    "name": "BANCO BRADESCO LEBLON",
    "lat": -22.983673,
    "lon": -43.216959
  },
  "45": {
    "address": "RUA CONDE DE BONFIM 682-A, Rio de Janeiro - RJ, Brasil",
    "name": "BANCO BRADESCO S/A (ESQ. R. URUGUAI)",
    "lat": -22.9319987,
    "lon": -43.2406675
  },
  "46": {
    "address": "RUA PINTO DE FIGUEIREDO 64, Rio de Janeiro - RJ, Brasil",
    "name": "BANCO BRADESCO S/A (R. PINTO DE FIGUEIREDO)",
    "lat": -22.9254427,
    "lon": -43.2353487
  },
  "47": {
    "address": "RUA HADDOCK LOBO 426, Rio de Janeiro - RJ, Brasil",
    "name": "BANCO BRADESCO",
    "lat": -22.9173814,
    "lon": -43.2110245
  },
  "48": {
    "address": "RUA CONDE DE BONFIM 369 A, Rio de Janeiro - RJ, Brasil",
    "name": "BANCO DO BRASIL (PRAÇA)",
    "lat": -22.9433907,
    "lon": -43.2539599
  },
  "49": {
    "address": "RUA BARÃO DE MESQUITA 248-A, Rio de Janeiro - RJ, Brasil",
    "name": "BANCO DO BRASIL (R. BARÃO DE MESQUITA)",
    "lat": -22.9225572,
    "lon": -43.2337496
  },
  "50": {
    "address": "AV. NOSSA SENHORA DE COPACABANA, 594,  Rio de Janeiro - RJ, Brasil",
    "name": "BANCO DO BRASIL - NSC 594",
    "lat": -22.9804461,
    "lon": -43.1910731
  },
  "51": {
    "address": "AV. NOSSA SENHORA DE COPACABANA 1292, Rio de Janeiro - RJ, Brasil",
    "name": "BANCO DO BRASIL ESTILO COPACABANA",
    "lat": -22.9804461,
    "lon": -43.1910731
  },
  "52": {
    "address": "AV. BARTOLOMEU MITRE 438 - A, Rio de Janeiro - RJ, Brasil",
    "name": "BANCO DO BRASIL LEBLON",
    "lat": -22.9786576,
    "lon": -43.2244574
  },
  "53": {
    "address": "AV. NOSSA SENHORA DE COPACABANA, 890, Rio de Janeiro - RJ, Brasil",
    "name": "BANCO DO BRASIL, NSC 890 - EX BRADESCO - CR 29",
    "lat": -22.9804461,
    "lon": -43.1910731
  },
  "54": {
    "address": "AV. NOSSA SENHORA DE COPACABANA 1362, Rio de Janeiro - RJ, Brasil",
    "name": "BANCO ITAU COPACABANA",
    "lat": -22.9804461,
    "lon": -43.1910731
  },
  "55": {
    "address": "RUA VISCONDE DE PIRAJÁ 451, Rio de Janeiro - RJ, Brasil",
    "name": "BANCO ITAU IPANEMA",
    "lat": -22.9847205,
    "lon": -43.1960486
  },
  "56": {
    "address": "RUA CONDE DE BONFIM 390, Rio de Janeiro - RJ, Brasil",
    "name": "BANCO ITAU S/A (PRAÇA)",
    "lat": -22.9433907,
    "lon": -43.2539599
  },
  "57": {
    "address": "RUA BELFORD ROXO, 146,  Rio de Janeiro - RJ, Brasil",
    "name": "BANCO ITAÚ - BRO 146",
    "lat": -22.9636786,
    "lon": -43.1761346
  },
  "58": {
    "address": "AV. NOSSA SENHORA DE COPACABANA, 1120 A - PRAÇA, Rio de Janeiro - RJ, Brasil",
    "name": "BANCO ITAÚ - NSC 1120",
    "lat": null,
    "lon": null
  },
  "59": {
    "address": "AV. NOSSA SENHORA DE COPACABANA, 44-A,  Rio de Janeiro - RJ, Brasil",
    "name": "BANCO ITAÚ - NSC 44",
    "lat": -22.9804461,
    "lon": -43.1910731
  },
  "60": {
    "address": "AV. NOSSA SENHORA DE COPACABANA, 581-A,  Rio de Janeiro - RJ, Brasil",
    "name": "BANCO ITAÚ - NSC 581",
    "lat": -22.9804461,
    "lon": -43.1910731
  },
  "61": {
    "address": "RUA CONDE DE BONFIM 807, Rio de Janeiro - RJ, Brasil",
    "name": "BANCO ITAÚ S/A (PRÓX. PRIX)",
    "lat": -22.9433907,
    "lon": -43.2539599
  },
  "62": {
    "address": "AVENIDA VINTE E OITO DE SETEMBRO 293 A, Rio de Janeiro - RJ, Brasil",
    "name": "BANCO ITAÚ S/A",
    "lat": -22.8652332,
    "lon": -42.2888664
  },
  "63": {
    "address": "AV. NOSSA SENHORA DE COPACABANA, 804, Rio de Janeiro - RJ, Brasil",
    "name": "BANCO SANTANDER - NSC 804 - EX BANCO SANTANDER - NSC 599",
    "lat": -22.9804461,
    "lon": -43.1910731
  },
  "64": {
    "address": "RUA CONDE DE BONFIM 193, Rio de Janeiro - RJ, Brasil",
    "name": "BANCO SANTANDER S/A (PRÓX. HORTIFRUTI)",
    "lat": -22.9433907,
    "lon": -43.2539599
  },
  "65": {
    "address": "RUA CONDE DE BONFIM 149, Rio de Janeiro - RJ, Brasil",
    "name": "BANCO SANTANDER S/A (PRÓX. TIJUCOR)",
    "lat": -22.9433907,
    "lon": -43.2539599
  },
  "66": {
    "address": "AV NOSSA SENHORA DE COPACABANA, 590, Rio de Janeiro - RJ, Brasil",
    "name": "BANCO SANTANDER, NSC 590 - EX BRADESCO - SCA 96",
    "lat": -22.9804461,
    "lon": -43.1910731
  },
  "67": {
    "address": "AV. NOSSA SENHORA DE COPACABANA, 827 A, Rio de Janeiro - RJ, Brasil",
    "name": "BANRISUL, NSC 827 A - EX SANTANDER - NSC 862",
    "lat": -22.9804461,
    "lon": -43.1910731
  },
  "68": {
    "address": "PRAÇA DANAIDES, S/N, Rio de Janeiro - RJ, Brasil",
    "name": "BIBLIOTECA EUCLIDES DA CUNHA - SESC",
    "lat": null,
    "lon": null
  },
  "69": {
    "address": "AVENIDA VINTE E OITO DE SETEMBRO 274, Rio de Janeiro - RJ, Brasil",
    "name": "BRADESCO S/A",
    "lat": -22.8652332,
    "lon": -42.2888664
  },
  "70": {
    "address": "RUA GUAPIARA 82, Rio de Janeiro - RJ, Brasil",
    "name": "BRASAS ENGLISH COURSE",
    "lat": -22.9267021,
    "lon": -43.2319783
  },
  "71": {
    "address": "RUA VILELA TAVARES, 46, Rio de Janeiro - RJ, Brasil",
    "name": "BRASAS ENGLISH COURSE",
    "lat": -22.9122427,
    "lon": -43.28489
  },
  "72": {
    "address": "PRAÇA ANHANGÁ 112, Rio de Janeiro - RJ, Brasil",
    "name": "BRAZ DE PINA COUNTRY CLUB",
    "lat": -22.8265033,
    "lon": -43.2857496
  },
  "73": {
    "address": "ESTRADA DE VASCONCELOS, SN, Rio de Janeiro - RJ, Brasil",
    "name": "C.E. CARLOS ARNOLDO ABRUZZINI DA FONSECA",
    "lat": -22.8926519,
    "lon": -43.5305754
  },
  "74": {
    "address": "RUA CAPITÃO FELIX, 110, SL, AUDITÓRIO, Rio de Janeiro - RJ, Brasil",
    "name": "CADEG - CENTRO DE ABASTECIMENTO DO ESTADO DA GUANABARA",
    "lat": null,
    "lon": null
  },
  "75": {
    "address": "ESTRADA DO GOIABAL S/N, Rio de Janeiro - RJ, Brasil",
    "name": "CAIC - NAÇÕES UNIDAS",
    "lat": -22.5823129,
    "lon": -43.1843665
  },
  "76": {
    "address": "AV. ENGENHEIRO SOUZA FILHO S/N, Rio de Janeiro - RJ, Brasil",
    "name": "CAIC EUCLIDES DA CUNHA",
    "lat": -22.9780761,
    "lon": -43.3340059
  },
  "77": {
    "address": "RUA SIQUEIRA CAMPOS, 34,  Rio de Janeiro - RJ, Brasil",
    "name": "CAIXA ECONOMICA FEDERAL - SCA 34",
    "lat": -22.969895,
    "lon": -43.184013
  },
  "78": {
    "address": "RUA CONDE DE BONFIM 302 A, Rio de Janeiro - RJ, Brasil",
    "name": "CAIXA ECONÔMICA FEDERAL (PRÓX. GRANADO)",
    "lat": -22.9433907,
    "lon": -43.2539599
  },
  "79": {
    "address": "RUA CONDE DE BONFIM 604, Rio de Janeiro - RJ, Brasil",
    "name": "CAIXA ECONÔMICA FEDERAL (PRÓX. KALUNGA)",
    "lat": -22.9433907,
    "lon": -43.2539599
  },
  "80": {
    "address": "RUA BARÃO DE MESQUITA 906, Rio de Janeiro - RJ, Brasil",
    "name": "CAIXA ECONÔMICA FEDERAL - ANDARAÍ",
    "lat": -22.9223205,
    "lon": -43.2328143
  },
  "81": {
    "address": "AV. NOSSA SENHORA DE COPACABANA, 861,  Rio de Janeiro - RJ, Brasil",
    "name": "CAIXA ECONÔMICA FEDERAL - NSC 861",
    "lat": -22.9804461,
    "lon": -43.1910731
  },
  "82": {
    "address": "AV DOM HÉLDER CÂMARA 5799, Rio de Janeiro - RJ, Brasil",
    "name": "CAIXA ECONÔMICA FEDERAL S/A",
    "lat": -22.8824335,
    "lon": -43.2757906
  },
  "83": {
    "address": "RUA JOÃO LIRA 84 (ENTRADA PELA AV. ATAULFO DE PAIVA), Rio de Janeiro - RJ, Brasil",
    "name": "CAIXA ECONÔMICA FEDERAL",
    "lat": null,
    "lon": null
  },
  "84": {
    "address": "RUA BARÃO DE ITAPAGIPE 96, Rio de Janeiro - RJ, Brasil",
    "name": "CAP - UERJ",
    "lat": -22.9188081,
    "lon": -43.2099472
  },
  "85": {
    "address": "RUA CILON CUNHA BRUM, S/N, URUCANIA, Rio de Janeiro - RJ, Brasil",
    "name": "CASA DA CRIANÇA JOÃO CORRÊA",
    "lat": -22.9130677,
    "lon": -43.655947
  },
  "86": {
    "address": "RUA FERNANDES GUIMARAES 85, Rio de Janeiro - RJ, Brasil",
    "name": "CASA DA CRIANÇA",
    "lat": -22.9557565,
    "lon": -43.1814543
  },
  "87": {
    "address": "RUA SÃO CLEMENTE 134, Rio de Janeiro - RJ, Brasil",
    "name": "CASA DE RUI BARBOSA",
    "lat": -22.9489888,
    "lon": -43.1868854
  },
  "88": {
    "address": "RUA CARLOS CHAMBELLAND, 40, Rio de Janeiro - RJ, Brasil",
    "name": "CASA DE VISEU",
    "lat": -22.8459226,
    "lon": -43.3034732
  },
  "89": {
    "address": "RUA MARQUÊS DE ABRANTES, 99, Rio de Janeiro - RJ, Brasil",
    "name": "CASA DO COMÉRCIO (FECOMÉRCIO/ SENAC RIO/ SESC RIO)",
    "lat": -22.9366681,
    "lon": -43.1771447
  },
  "90": {
    "address": "AV. MELO MATOS 25, Rio de Janeiro - RJ, Brasil",
    "name": "CASA DOS AÇORES",
    "lat": -22.9208276,
    "lon": -43.2208694
  },
  "91": {
    "address": "RUA HADDOCK LOBO 195, Rio de Janeiro - RJ, Brasil",
    "name": "CASA VILA DA FEIRA",
    "lat": -22.9214325,
    "lon": -43.2200116
  },
  "92": {
    "address": "RUA CONDE DE BAEPENDI S/N - ENTRADA PRAÇA JOSÉ DE ALENCAR N 4, Rio de Janeiro - RJ, Brasil",
    "name": "CATEDRAL METODISTA DO RIO DE JANEIRO",
    "lat": null,
    "lon": null
  },
  "93": {
    "address": "RUA CASIMIRO DE ABREU, 176, Rio de Janeiro - RJ, Brasil",
    "name": "CCIP - CENTRO DE COMÉRCIO E INDÚSTRIA DE PILARES",
    "lat": -22.5053508,
    "lon": -43.1656229
  },
  "94": {
    "address": "AV. DOM HÉLDER CÂMARA 1184, Rio de Janeiro - RJ, Brasil",
    "name": "CE COMPOSITOR LUIZ CARLOS DA VILA",
    "lat": -22.8842166,
    "lon": -43.2911702
  },
  "95": {
    "address": "RUA ANTONIO REGO, 839, Rio de Janeiro - RJ, Brasil",
    "name": "CEAM - CENTRO EDUCACIONAL ANDRADE MACHADO",
    "lat": -22.8520635,
    "lon": -43.2692573
  },
  "96": {
    "address": "AVENIDA IZABEL DOMINGUES, 420, Rio de Janeiro - RJ, Brasil",
    "name": "CEEVA II - CENTRO EDUCACIONAL EVANGÉLICO VIEIRA AGUIAR - UNIDADE II",
    "lat": null,
    "lon": null
  },
  "97": {
    "address": "RUA HENRIQUE BRAGA, 478, Rio de Janeiro - RJ, Brasil",
    "name": "CEFA",
    "lat": -22.8767588,
    "lon": -43.3514004
  },
  "98": {
    "address": "RUA MIGUEL ÂNGELO, 96, Rio de Janeiro - RJ, Brasil",
    "name": "CEFET - MARIA DA GRAÇA",
    "lat": -22.8824079,
    "lon": -43.259001
  },
  "99": {
    "address": "AVENIDA GEREMÁRIO DANTAS 418 TANQUE, Rio de Janeiro - RJ, Brasil",
    "name": "CEJA-CENTRO DE ENSINO DE JACAREPAGUÁ-TANQUE",
    "lat": -22.9248285,
    "lon": -43.3607326
  },
  "100": {
    "address": "RUA JORNALISTA HENRIQUE CORDEIRO 200, Rio de Janeiro - RJ, Brasil",
    "name": "CEL INTERCULTURAL SCHOOL (ANTIGO RIVIERA COUNTRY CLUB)",
    "lat": -23.0040345,
    "lon": -43.3247381
  },
  "101": {
    "address": "RUA EURICO CRUZ, 19, Rio de Janeiro - RJ, Brasil",
    "name": "CEL INTERCULTURAL SCHOOL (JB - EURICO CRUZ)",
    "lat": -22.9586011,
    "lon": -43.2069379
  },
  "102": {
    "address": "RUA MARIA ANGÉLICA,294, Rio de Janeiro - RJ, Brasil",
    "name": "CEL INTERCULTURAL SCHOOL (JB - MARIA ANGÉLICA)",
    "lat": -22.9585055,
    "lon": -43.2075801
  },
  "103": {
    "address": "ESTRADA CARVALHO RAMOS, 1050, Rio de Janeiro - RJ, Brasil",
    "name": "CENTRO CULTURAL PEDRO II - CARVALHO RAMOS",
    "lat": -22.8855506,
    "lon": -43.5891163
  },
  "104": {
    "address": "RUA BARÃO, 1180, Rio de Janeiro - RJ, Brasil",
    "name": "CENTRO CULTURAL PROFESSORA DYLA SYLVIA DE SÁ",
    "lat": -22.8998032,
    "lon": -43.3508119
  },
  "105": {
    "address": "RUA QUITO 62, Rio de Janeiro - RJ, Brasil",
    "name": "CENTRO CÍVICO LEOPOLDINENSE",
    "lat": -22.8391211,
    "lon": -43.2737327
  },
  "106": {
    "address": "RUA PRAIA DE INHAÚMA, 200, Rio de Janeiro - RJ, Brasil",
    "name": "CENTRO DE EDUCAÇÃO DE JOVENS E ADULTOS - CEJA/MARÉ",
    "lat": -22.8623199,
    "lon": -43.2389477
  },
  "107": {
    "address": "RUA AMBAITINGA 3, Rio de Janeiro - RJ, Brasil",
    "name": "CENTRO DE EDUCAÇÃO E CULTURA  HENRIQUE FERNANDES",
    "lat": -22.8094272,
    "lon": -43.1789127
  },
  "108": {
    "address": "RUA DR. BULHOES, 902, Rio de Janeiro - RJ, Brasil",
    "name": "CENTRO DE ENSINO CHAVE DO SABER",
    "lat": -22.8968725,
    "lon": -43.2964972
  },
  "109": {
    "address": "AV. MIGUEL ANTÔNIO FERNANDES, 751, Rio de Janeiro - RJ, Brasil",
    "name": "CENTRO DE ENSINO FARIA BRITO",
    "lat": -23.0127749,
    "lon": -43.4771719
  },
  "110": {
    "address": "RUA EDGARD WERNECK, 1199 / 1211, Rio de Janeiro - RJ, Brasil",
    "name": "CENTRO DE ENSINO MARIO BARRETO (PIRILAMPO FELIZ)",
    "lat": -22.9431855,
    "lon": -43.3551626
  },
  "111": {
    "address": "RUA FLORIANÓPOLIS, 1496, Rio de Janeiro - RJ, Brasil",
    "name": "CENTRO DE ENSINO NOSSA SENHORA DE FÁTIMA",
    "lat": -22.7916374,
    "lon": -43.2906603
  },
  "112": {
    "address": "RUA BELFORT ROXO, 433,  Rio de Janeiro - RJ, Brasil",
    "name": "CENTRO DE ESTUDOS DE JOVENS E ADULTOS (CEJA) - BR 433",
    "lat": -22.9650776,
    "lon": -43.1755997
  },
  "113": {
    "address": "RUA SÃO FRANCISCO XAVIER 417, Rio de Janeiro - RJ, Brasil",
    "name": "CENTRO DE FORMAÇÃO PROFISSIONAL ARTES GRÁFICAS",
    "lat": -22.9158261,
    "lon": -43.2327876
  },
  "114": {
    "address": "RUA CONSELHEIRO FERRAZ, 27, Rio de Janeiro - RJ, Brasil",
    "name": "CENTRO DE INTEGRAÇÃO SOCIAL SANTO AGOSTINHO - CISSA",
    "lat": -22.9096827,
    "lon": -43.2789303
  },
  "115": {
    "address": "AV. MINISTRO EDGARD ROMERO 276, Rio de Janeiro - RJ, Brasil",
    "name": "CENTRO DE SAUDE HERCULANO PINHEIRO",
    "lat": -22.8703881,
    "lon": -43.3348001
  },
  "116": {
    "address": "RUA LUIZ BELTRÃO, 1583, Rio de Janeiro - RJ, Brasil",
    "name": "CENTRO EDUCACIONAL ADVENTISTA",
    "lat": -22.8894802,
    "lon": -43.3585881
  },
  "117": {
    "address": "RUA MARIO CORDEIRO, 25 - CALIFÓRNIA, Rio de Janeiro - RJ, Brasil",
    "name": "CENTRO EDUCACIONAL CALIFORNIA",
    "lat": -22.8916589,
    "lon": -43.5852554
  },
  "118": {
    "address": "RUA MURUNDU 841, Rio de Janeiro - RJ, Brasil",
    "name": "CENTRO EDUCACIONAL CARROSSEL DAS NEVES",
    "lat": -22.8841452,
    "lon": -43.448634
  },
  "119": {
    "address": "AVENIDA DOS ITALIANOS, 841, Rio de Janeiro - RJ, Brasil",
    "name": "CENTRO EDUCACIONAL FERNANDES FONTE",
    "lat": -22.8545104,
    "lon": -43.3496637
  },
  "120": {
    "address": "RUA SEABRA, 355, Rio de Janeiro - RJ, Brasil",
    "name": "CENTRO EDUCACIONAL MARIETA NEWMAN",
    "lat": -22.9264119,
    "lon": -43.5662685
  },
  "121": {
    "address": "ESTRADA DO ITANHANGÁ, 2545, N. 4, Rio de Janeiro - RJ, Brasil",
    "name": "CENTRO EDUCACIONAL MUZEMA",
    "lat": null,
    "lon": null
  },
  "122": {
    "address": "RUA FAUSTINO LINS 898, Rio de Janeiro - RJ, Brasil",
    "name": "CENTRO EDUCACIONAL NOSSA SENHORA APARECIDA (ACESSO PRINCIPAL)",
    "lat": -22.827486,
    "lon": -43.3968173
  },
  "123": {
    "address": "RUA ITAI SN, Rio de Janeiro - RJ, Brasil",
    "name": "CENTRO EDUCACIONAL NOSSA SENHORA APARECIDA (ACESSO QUADRA)",
    "lat": -22.8213437,
    "lon": -43.3967179
  },
  "124": {
    "address": "PRAÇA ATENAS, 28, Rio de Janeiro - RJ, Brasil",
    "name": "CENTRO EDUCACIONAL NOVO MUNDO",
    "lat": -22.8738365,
    "lon": -43.451734
  },
  "125": {
    "address": "ESTRADA JOÃO PAULO, 1876, Rio de Janeiro - RJ, Brasil",
    "name": "CENTRO EDUCACIONAL OLIVEIRA SOUZA - CANTINHO DO SABER",
    "lat": -22.8484031,
    "lon": -43.3583519
  },
  "126": {
    "address": "AVENIDA BRÁS DE PINA, 983, Rio de Janeiro - RJ, Brasil",
    "name": "CENTRO EDUCACIONAL REYNALDO NASCIMENTO (ANTIGO COLÉGIO ATENAS)",
    "lat": -22.8383509,
    "lon": -43.2843842
  },
  "127": {
    "address": "EST. TRÊS RIOS, 1801, Rio de Janeiro - RJ, Brasil",
    "name": "CENTRO EDUCACIONAL RIO - CER",
    "lat": null,
    "lon": null
  },
  "128": {
    "address": "RUA PRIMEIRA, 848, Rio de Janeiro - RJ, Brasil",
    "name": "CENTRO EDUCACIONAL SANTA MONICA",
    "lat": -22.9254404,
    "lon": -43.6816356
  },
  "129": {
    "address": "RUA CACEQUI, 75, Rio de Janeiro - RJ, Brasil",
    "name": "CENTRO EDUCACIONAL SOUZA GOMES",
    "lat": -22.8385688,
    "lon": -43.3007547
  },
  "130": {
    "address": "RUA JOAO VICENTE 1355, Rio de Janeiro - RJ, Brasil",
    "name": "CENTRO EDUCACIONAL TRIANGULO",
    "lat": -22.8792561,
    "lon": -43.3373288
  },
  "131": {
    "address": "RUA CORONEL CORTE REAL, 119, Rio de Janeiro - RJ, Brasil",
    "name": "CENTRO EDUCACIONAL ÓRION",
    "lat": -22.8747898,
    "lon": -43.4701555
  },
  "132": {
    "address": "RUA DIAS DA ROCHA, 80,  Rio de Janeiro - RJ, Brasil",
    "name": "CENTRO ESCOLAR COPACABANA - DR 80",
    "lat": -22.9725687,
    "lon": -43.1893636
  },
  "133": {
    "address": "RUA OLINDA ELLIS S/N, Rio de Janeiro - RJ, Brasil",
    "name": "CENTRO ESPORTIVO MIECIMO DA SILVA",
    "lat": -22.9102514,
    "lon": -43.5590583
  },
  "134": {
    "address": "RUA AUGUSTA CANDIANI, S/N, Rio de Janeiro - RJ, Brasil",
    "name": "CENTRO INTERESCOLAR ESTADUAL MIECIMO DA SILVA",
    "lat": -22.9025923,
    "lon": -43.5785065
  },
  "135": {
    "address": "RUA CÂNDIDO BENÍCIO, 2973, Rio de Janeiro - RJ, Brasil",
    "name": "CENTRO MUNICIPAL DE REFERÊNCIA DA PESSOA COM DEFICIÊNCIA MATO ALTO",
    "lat": -22.9157074,
    "lon": -43.3617637
  },
  "136": {
    "address": "RUA TENREIRO ARANHA, S/N,  Rio de Janeiro - RJ, Brasil",
    "name": "CENTRO MUNICIPAL DE SAÚDE JOÃO BARROS BARRETO - TA",
    "lat": -22.7949802,
    "lon": -43.290328
  },
  "137": {
    "address": "ESTRADA DO OTAVIANO, 310, Rio de Janeiro - RJ, Brasil",
    "name": "CENTRO PASTORAL SANTA RITA DE CÁSSIA",
    "lat": -22.8553892,
    "lon": -43.3470415
  },
  "138": {
    "address": "AV. PASTOR MARTIN LUTHER KING JR 6475, Rio de Janeiro - RJ, Brasil",
    "name": "CENTRO SOCIAL MORVAM DIAS DE FIGUEIREDO (SESI)",
    "lat": null,
    "lon": null
  },
  "139": {
    "address": "AVENIDA MARECHAL RONDON, 2538, Rio de Janeiro - RJ, Brasil",
    "name": "CENTRO UNIVERSITÁRIO CELSO LISBOA",
    "lat": -22.9033475,
    "lon": -43.2459341
  },
  "140": {
    "address": "RUA ENGENHEIRO TRINDADE, 205, Rio de Janeiro - RJ, Brasil",
    "name": "CENTRO UNIVERSITÁRIO DO RIO DE JANEIRO",
    "lat": -22.9030952,
    "lon": -43.5637314
  },
  "141": {
    "address": "RUA CAMPO GRANDE 1508, Rio de Janeiro - RJ, Brasil",
    "name": "CENTRO UNIVERSITÁRIO GAMA E SOUZA - UNIGAMA (ANTIGO ANTÔNIO DE PÁDUA)",
    "lat": -22.9004968,
    "lon": -43.5520744
  },
  "142": {
    "address": "AVENIDA PAULO DE FRONTIN 568, Rio de Janeiro - RJ, Brasil",
    "name": "CENTRO UNIVERSITÁRIO UNICARIOCA",
    "lat": -22.9261672,
    "lon": -43.2098045
  },
  "143": {
    "address": "RUA MARQUÊS DE ABRANTES, 55, Rio de Janeiro - RJ, Brasil",
    "name": "CENTRO UNIVERSITÁRIO UNIVERITAS",
    "lat": -22.9353835,
    "lon": -43.1766288
  },
  "144": {
    "address": "RUA GODOFREDO VIANA, 357, Rio de Janeiro - RJ, Brasil",
    "name": "CEOM- GODOFREDO VIANA, TANQUE",
    "lat": -22.9124716,
    "lon": -43.3609356
  },
  "145": {
    "address": "AVENIDA DOS MANANCIAIS, 255, TAQUARA, Rio de Janeiro - RJ, Brasil",
    "name": "CER - CENTRO EDUCACIONAL RIO LTDA - TAQUARA",
    "lat": -22.917125,
    "lon": -43.380618
  },
  "146": {
    "address": "AV. BRAS DE PINA 1566, Rio de Janeiro - RJ, Brasil",
    "name": "CERC 1 - CENTRO EDUCACIONAL ROSA CHAMMA",
    "lat": -22.8416882,
    "lon": -43.2788787
  },
  "147": {
    "address": "RUA ÁPIA, 466, Rio de Janeiro - RJ, Brasil",
    "name": "CERC",
    "lat": -22.8437786,
    "lon": -43.3022374
  },
  "148": {
    "address": "RUA DR. OTAVIO KELLY 110, Rio de Janeiro - RJ, Brasil",
    "name": "CIA ESTADUAL DE ÁGUAS E ESGOTOS - CEDAE",
    "lat": -22.9326856,
    "lon": -43.2422096
  },
  "149": {
    "address": "RUA SALUSTIANO SILVA, S/N, Rio de Janeiro - RJ, Brasil",
    "name": "CIEP  ASPIRANTE FRANCISCO MEGA",
    "lat": -22.8697423,
    "lon": -43.4116079
  },
  "150": {
    "address": "AVENIDA CESARIO DE MELO, 7431, Rio de Janeiro - RJ, Brasil",
    "name": "CIEP  ENGENHEIRO WAGNER GASPAR EMERY",
    "lat": -22.9145521,
    "lon": -43.6017305
  },
  "151": {
    "address": "RUA MONGOLIA S/N, Rio de Janeiro - RJ, Brasil",
    "name": "CIEP  PROFESSORA CELIA MARTINS MENA BARRETO",
    "lat": -22.8889289,
    "lon": -43.4697741
  },
  "152": {
    "address": "ESTRADA GOVERNADOR CHAGAS FREITAS S/N, Rio de Janeiro - RJ, Brasil",
    "name": "CIEP - DR. JOÃO RAMOS DE SOUZA",
    "lat": -22.7990255,
    "lon": -43.2007849
  },
  "153": {
    "address": "RUA AUGUSTO CANDIANI S/N, Rio de Janeiro - RJ, Brasil",
    "name": "CIEP - GINASIO PUBLICO MARIO QUINTANA",
    "lat": null,
    "lon": null
  },
  "154": {
    "address": "AV. JOÃO RIBEIRO, S/N, Rio de Janeiro - RJ, Brasil",
    "name": "CIEP 092 FEDERICO FELLINI",
    "lat": -22.867833,
    "lon": -43.3046633
  },
  "155": {
    "address": "ESTRADA SARGENTO MIGUEL FILHO, S/N, Rio de Janeiro - RJ, Brasil",
    "name": "CIEP 224 TARSO DE CASTRO",
    "lat": -22.8570738,
    "lon": -43.4835566
  },
  "156": {
    "address": "RUA FREI TIMOTHEO, SN - CONJUNTO CORREIOS, Rio de Janeiro - RJ, Brasil",
    "name": "CIEP 336 OCTAVIO MALTA",
    "lat": null,
    "lon": null
  },
  "157": {
    "address": "RUA DO LIMÃO, S/N - CJ. JOÃO SALDANHA, Rio de Janeiro - RJ, Brasil",
    "name": "CIEP 386 GUILHERME DA SILVEIRA FILHO",
    "lat": null,
    "lon": null
  },
  "158": {
    "address": "AVENIDA BRASIL, 18476, Rio de Janeiro - RJ, Brasil",
    "name": "CIEP ADÃO PEREIRA NUNES",
    "lat": -22.8476339,
    "lon": -43.2480526
  },
  "159": {
    "address": "RUA CILON CUNHA BRUM, S/N - URUCANIA, Rio de Janeiro - RJ, Brasil",
    "name": "CIEP ALBERTO PASQUALINI",
    "lat": -22.9130677,
    "lon": -43.655947
  },
  "160": {
    "address": "RUA PORTO SANTANA, S/N, Rio de Janeiro - RJ, Brasil",
    "name": "CIEP ALMIR BONFIM DE ANDRADE",
    "lat": -22.885647,
    "lon": -43.3722332
  },
  "161": {
    "address": "RUA BOIOBI FINAL S/N, Rio de Janeiro - RJ, Brasil",
    "name": "CIEP AMILCAR CABRAL",
    "lat": null,
    "lon": null
  },
  "162": {
    "address": "RUA SOLDADO JOÃO PIMENTEL, S/N, Rio de Janeiro - RJ, Brasil",
    "name": "CIEP ANITA MALFATI",
    "lat": -22.9274928,
    "lon": -43.556611
  },
  "163": {
    "address": "ESTRADA DE BOTAFOGO S/N, Rio de Janeiro - RJ, Brasil",
    "name": "CIEP ANTON MAKARENKO",
    "lat": -22.81884,
    "lon": -43.3571883
  },
  "164": {
    "address": "AV. SANTA CRUZ S/N, Rio de Janeiro - RJ, Brasil",
    "name": "CIEP ANTONIO EVARISTO DE MORAES",
    "lat": -22.8760311,
    "lon": -43.4559916
  },
  "165": {
    "address": "AVENIDA BRASIL, S/N, Rio de Janeiro - RJ, Brasil",
    "name": "CIEP ANTÔNIO CANDEIA FILHO",
    "lat": -22.8476339,
    "lon": -43.2480526
  },
  "166": {
    "address": "RUA BÁRBARA HELIODORA, S/N, Rio de Janeiro - RJ, Brasil",
    "name": "CIEP ARACY DE ALMEIDA (CANTORA)",
    "lat": -22.8881979,
    "lon": -43.3946824
  },
  "167": {
    "address": "RUA FLAVIO FRAGA S/N - VILA NOVA, Rio de Janeiro - RJ, Brasil",
    "name": "CIEP ARMINDO M. DOUTEL DE ANDRADE",
    "lat": -22.8903438,
    "lon": -43.5826048
  },
  "168": {
    "address": "AUTO ESTRADA ENG. FERNANDO MAC DOWELL, 15-A, Rio de Janeiro - RJ, Brasil",
    "name": "CIEP AYRTON SENNA DA SILVA",
    "lat": -22.9930574,
    "lon": -43.2509211
  },
  "169": {
    "address": "ESTRADA VITOR DUMAS, S/N, Rio de Janeiro - RJ, Brasil",
    "name": "CIEP BARAO DE ITARARE",
    "lat": -22.9347427,
    "lon": -43.7004157
  },
  "170": {
    "address": "ESTRADA LAMEIRAO PEQUENO S/N, Rio de Janeiro - RJ, Brasil",
    "name": "CIEP BRIGADEIRO SERGIO CARVALHO",
    "lat": null,
    "lon": null
  },
  "171": {
    "address": "RUA PINTO TELES, S/N, Rio de Janeiro - RJ, Brasil",
    "name": "CIEP CARLOS DRUMMOND DE ANDRADE",
    "lat": -22.8891912,
    "lon": -43.3456042
  },
  "172": {
    "address": "RUA GUARUJÁ, SN, Rio de Janeiro - RJ, Brasil",
    "name": "CIEP CLAUDIO MANOEL DA COSTA",
    "lat": -22.9152406,
    "lon": -43.6282997
  },
  "173": {
    "address": "AVENIDA ALHAMBRA S/N BAIRRO BEL CLIMA, Rio de Janeiro - RJ, Brasil",
    "name": "CIEP CLEMENTINA DE JESUS",
    "lat": null,
    "lon": null
  },
  "174": {
    "address": "ESTR. DA BOIUNA 1005, Rio de Janeiro - RJ, Brasil",
    "name": "CIEP COMPOSITOR DONGA",
    "lat": -22.9174024,
    "lon": -43.3988603
  },
  "175": {
    "address": "AV. ITAÓCA, S/N, Rio de Janeiro - RJ, Brasil",
    "name": "CIEP CORONEL SARMENTO",
    "lat": -22.8722001,
    "lon": -43.2769295
  },
  "176": {
    "address": "ESTRADA SANTA EUGENIA, 24 - PACIÊNCIA - RIO DE JANEIRO/RJ, Rio de Janeiro - RJ, Brasil",
    "name": "CIEP DEPUTADO BOCAYUVA CUNHA",
    "lat": -22.9194191,
    "lon": -43.6339505
  },
  "177": {
    "address": "RUA JOSE FERNANDES, 892, Rio de Janeiro - RJ, Brasil",
    "name": "CIEP DEPUTADO ULYSSES GUIMARAES",
    "lat": -22.9806443,
    "lon": -43.6978462
  },
  "178": {
    "address": "ESTRADA DO COLEGIO S/N, Rio de Janeiro - RJ, Brasil",
    "name": "CIEP DOM OSCAR ROMERO",
    "lat": -22.8421888,
    "lon": -43.3350071
  },
  "179": {
    "address": "RUA ANTONIO JOAQUIM MACHADO S/N - PACIÊNCIA - RIO DE JANEIRO/RJ, Rio de Janeiro - RJ, Brasil",
    "name": "CIEP DOUTOR NELSON HUNGRIA",
    "lat": -22.9219458,
    "lon": -43.625921
  },
  "180": {
    "address": "RUA TIMBAÚBA S/N - PEDRANGULAR, Rio de Janeiro - RJ, Brasil",
    "name": "CIEP ERNESTO CHE GUEVARA",
    "lat": null,
    "lon": null
  },
  "181": {
    "address": "ESTRADA DA MORICABA S/N, Rio de Janeiro - RJ, Brasil",
    "name": "CIEP FRANCISCO CAVALCANTE PONTES DE MIRANDA",
    "lat": -22.9017462,
    "lon": -43.5328929
  },
  "182": {
    "address": "RUA ALCIDES BEZERRA S/N, Rio de Janeiro - RJ, Brasil",
    "name": "CIEP FRANCISCO SOLANO TRINDADE",
    "lat": -22.8897811,
    "lon": -43.4297857
  },
  "183": {
    "address": "RUA FRANKLIN TAVORA, S/N, Rio de Janeiro - RJ, Brasil",
    "name": "CIEP FREI VELOSO",
    "lat": -22.8816983,
    "lon": -43.4260874
  },
  "184": {
    "address": "PRACA OTACILIO PEDRO VASCO S/N, Rio de Janeiro - RJ, Brasil",
    "name": "CIEP GENERAL AUGUSTO CESAR SANDINO",
    "lat": null,
    "lon": null
  },
  "185": {
    "address": "RUA FREI VICENTE, S/N, Rio de Janeiro - RJ, Brasil",
    "name": "CIEP GLAUBER ROCHA",
    "lat": -22.8112709,
    "lon": -43.3536552
  },
  "186": {
    "address": "ESTRADA DE JACAREPAGUA 3415, Rio de Janeiro - RJ, Brasil",
    "name": "CIEP GOVERNADOR ROBERTO DA SILVEIRA",
    "lat": -22.9881415,
    "lon": -43.326913
  },
  "187": {
    "address": "ESTRADA DA MATRIZ, S/N, Rio de Janeiro - RJ, Brasil",
    "name": "CIEP GP HEITOR DOS PRAZERES",
    "lat": -22.8730057,
    "lon": -43.473497
  },
  "188": {
    "address": "RUA JORGE LACERDA S/N, Rio de Janeiro - RJ, Brasil",
    "name": "CIEP GRACILLIANO RAMOS",
    "lat": -22.8134123,
    "lon": -43.3231053
  },
  "189": {
    "address": "RUA TANCREDO NEVES S/N - NOVA HOLANDA, Rio de Janeiro - RJ, Brasil",
    "name": "CIEP HELIO SMIDT",
    "lat": -22.8541336,
    "lon": -43.2407478
  },
  "190": {
    "address": "RUA CARLOS SEIDL, 71,  Rio de Janeiro - RJ, Brasil",
    "name": "CIEP HENFIL",
    "lat": -22.8816709,
    "lon": -43.2247435
  },
  "191": {
    "address": "PRAÇA SANTO ANASTÁCIO S/N JARDIM CAXANGÁ, Rio de Janeiro - RJ, Brasil",
    "name": "CIEP HERIVELTO MARTINS",
    "lat": null,
    "lon": null
  },
  "192": {
    "address": "ESTRADA DA PEDRA S/N, Rio de Janeiro - RJ, Brasil",
    "name": "CIEP HILDEBRANDO DE ARAUJO GOES",
    "lat": -22.975093,
    "lon": -43.6479877
  },
  "193": {
    "address": "ESTRADA GUANDU DO SAPE S/N, Rio de Janeiro - RJ, Brasil",
    "name": "CIEP HÉLIO PELLEGRINO",
    "lat": -22.8735691,
    "lon": -43.5606058
  },
  "194": {
    "address": "AVENIDA CESARIO DE MELO S/N CESARAO - SANTA CRUZ - RIO DE JANEIRO/RJ, Rio de Janeiro - RJ, Brasil",
    "name": "CIEP ISMAEL NERY",
    "lat": -22.9271114,
    "lon": -43.652616
  },
  "195": {
    "address": "RUA PINHEIRO BITTENCOURT S/N, Rio de Janeiro - RJ, Brasil",
    "name": "CIEP JOAO DO RIO",
    "lat": -22.844363,
    "lon": -43.3662108
  },
  "196": {
    "address": "AVENIDA CANAL TRES S/N CJ CESARAO - SANTA CRUZ - RIO DE JANEIRO/RJ, Rio de Janeiro - RJ, Brasil",
    "name": "CIEP JOAO VITA",
    "lat": null,
    "lon": null
  },
  "197": {
    "address": "RUA DO LAVRADIO, 133,  Rio de Janeiro - RJ, Brasil",
    "name": "CIEP JOSÉ PEDRO VARELA",
    "lat": -22.9112195,
    "lon": -43.1821423
  },
  "198": {
    "address": "RUA EDGARD WERNECK, 1565, Rio de Janeiro - RJ, Brasil",
    "name": "CIEP JOÃO BATISTA DOS SANTOS",
    "lat": -22.9431855,
    "lon": -43.3551626
  },
  "199": {
    "address": "AV. ILHA DAS ENXADAS, S/N, Rio de Janeiro - RJ, Brasil",
    "name": "CIEP JOÃO MANGABEIRA",
    "lat": -22.788716,
    "lon": -43.1831684
  },
  "200": {
    "address": "AV. JOÃO XXIII, S/N, Rio de Janeiro - RJ, Brasil",
    "name": "CIEP JOÃO XXIII",
    "lat": -22.8941698,
    "lon": -43.7430948
  },
  "201": {
    "address": "RUA CAMPO MAIOR S/N SANTA RITA DE CASSIA, Rio de Janeiro - RJ, Brasil",
    "name": "CIEP LAMARTINE BABO",
    "lat": null,
    "lon": null
  },
  "202": {
    "address": "ESTRADA DE JACAREPAGUA 5011, Rio de Janeiro - RJ, Brasil",
    "name": "CIEP LAURO DE OLIVEIRA LIMA",
    "lat": -22.9732345,
    "lon": -43.3355222
  },
  "203": {
    "address": "AVENIDA BRASIL, 8666, Rio de Janeiro - RJ, Brasil",
    "name": "CIEP LEONEL DE MOURA BRIZOLA",
    "lat": -22.8395886,
    "lon": -43.25342
  },
  "204": {
    "address": "ESTRADA DO ENGENHO S/N, Rio de Janeiro - RJ, Brasil",
    "name": "CIEP MAESTRINA CHIQUINHA GONZAGA",
    "lat": -22.8683127,
    "lon": -43.4700384
  },
  "205": {
    "address": "RUA CABO SAULO DE VASCONCELOS S/N, Rio de Janeiro - RJ, Brasil",
    "name": "CIEP MAJOR MANUEL GOMES ARCHER",
    "lat": -22.8876146,
    "lon": -43.6383464
  },
  "206": {
    "address": "ESTRADA GENERAL AMERICANO FREIRE, SN, Rio de Janeiro - RJ, Brasil",
    "name": "CIEP MARECHAL HENRIQUE TEIXEIRA LOTT",
    "lat": -22.8643029,
    "lon": -43.4453177
  },
  "207": {
    "address": "RUA JOAO DE LACERDA S/N, Rio de Janeiro - RJ, Brasil",
    "name": "CIEP MARECHAL JULIO CAETANO HORTA BARBOSA",
    "lat": -22.8842767,
    "lon": -43.4755021
  },
  "208": {
    "address": "RUA DESEMBARGADOR PAULO ALONSO, N 23, Rio de Janeiro - RJ, Brasil",
    "name": "CIEP MARGARET MEE",
    "lat": -23.0181095,
    "lon": -43.4744815
  },
  "209": {
    "address": "ESTRADA VITOR DUMAS,  2567, Rio de Janeiro - RJ, Brasil",
    "name": "CIEP MARIO DE ANDRADE",
    "lat": -22.9347427,
    "lon": -43.7004157
  },
  "210": {
    "address": "PRAÇA DO TRABALHADOR S/N, Rio de Janeiro - RJ, Brasil",
    "name": "CIEP MESTRE ANDRE",
    "lat": null,
    "lon": null
  },
  "211": {
    "address": "RUA SIDONIO PAIS, 227, Rio de Janeiro - RJ, Brasil",
    "name": "CIEP METALURGICO BENEDICTO CERQUEIRA",
    "lat": -22.8811028,
    "lon": -43.3262619
  },
  "212": {
    "address": "RUA JOSE FERNANDES S/N, Rio de Janeiro - RJ, Brasil",
    "name": "CIEP MINISTRO MARCOS FREIRE",
    "lat": -22.9806443,
    "lon": -43.6978462
  },
  "213": {
    "address": "ESTRADA PEDRO BORGES DE FREITAS S/N, Rio de Janeiro - RJ, Brasil",
    "name": "CIEP MÁRIO TAMBORINDEGUY",
    "lat": -22.8317381,
    "lon": -43.3342656
  },
  "214": {
    "address": "RUA SANTOS MELO, N. 73, Rio de Janeiro - RJ, Brasil",
    "name": "CIEP NAÇÃO MANGUEIRENSE",
    "lat": -22.9023366,
    "lon": -43.2425861
  },
  "215": {
    "address": "PRAÇA NOSSA SENHORA AUXILIADORA S/N, Rio de Janeiro - RJ, Brasil",
    "name": "CIEP NAÇÃO RUBRONEGRA",
    "lat": null,
    "lon": null
  },
  "216": {
    "address": "PRACA DANIEL LAMES S/N - JD. RIO DO A, Rio de Janeiro - RJ, Brasil",
    "name": "CIEP NELSON MANDELA",
    "lat": null,
    "lon": null
  },
  "217": {
    "address": "ESTRADA DO TAQUARAL S/N, Rio de Janeiro - RJ, Brasil",
    "name": "CIEP OLOF PALME",
    "lat": -22.8643926,
    "lon": -43.4743988
  },
  "218": {
    "address": "ESTRADA DA POSSE 1000, Rio de Janeiro - RJ, Brasil",
    "name": "CIEP OLYMPIO MARQUES DOS SANTOS",
    "lat": -22.8772347,
    "lon": -43.5164016
  },
  "219": {
    "address": "RUA PRINCESA LEOPOLDINA S/N, Rio de Janeiro - RJ, Brasil",
    "name": "CIEP OSWALDO ARANHA",
    "lat": -22.8715832,
    "lon": -43.4197748
  },
  "220": {
    "address": "RUA FRANCISCO BRICIO S/N, Rio de Janeiro - RJ, Brasil",
    "name": "CIEP PADRE PAULO CORREA DE SA",
    "lat": null,
    "lon": null
  },
  "221": {
    "address": "RUA MARECHAL MARCIANO, S/N, Rio de Janeiro - RJ, Brasil",
    "name": "CIEP POETA CRUZ E SOUSA",
    "lat": -22.8696977,
    "lon": -43.440886
  },
  "222": {
    "address": "RUA SILVESTRE FILIPPI S/N, Rio de Janeiro - RJ, Brasil",
    "name": "CIEP POETA FERNANDO PESSOA",
    "lat": -22.8347526,
    "lon": -43.4143927
  },
  "223": {
    "address": "RUA SILVANIA S/N, JARDIM MARAVILHA, Rio de Janeiro - RJ, Brasil",
    "name": "CIEP POSSEIRO MARIO VAZ",
    "lat": -22.9692265,
    "lon": -43.6110231
  },
  "224": {
    "address": "RUA VISCONDE DE SILVA, S/N, Rio de Janeiro - RJ, Brasil",
    "name": "CIEP PRESIDENTE AGOSTINHO NETO (CIEP HUMAITÁ)",
    "lat": -22.9584979,
    "lon": -43.1979303
  },
  "225": {
    "address": "RUA DO CATETE 77, Rio de Janeiro - RJ, Brasil",
    "name": "CIEP PRESIDENTE TANCREDO NEVES",
    "lat": -22.9230842,
    "lon": -43.1768041
  },
  "226": {
    "address": "RUA CONCHAS S/N - SANTA ROSA, Rio de Janeiro - RJ, Brasil",
    "name": "CIEP PROFESSOR DARCI RIBEIRO",
    "lat": -22.8875513,
    "lon": -43.5876322
  },
  "227": {
    "address": "AV. PASTOR MARTIN LUTHER KING JUNIOR, S/N, Rio de Janeiro - RJ, Brasil",
    "name": "CIEP RAINHA NZINGA DE ANGOLA",
    "lat": -22.851695,
    "lon": -43.3169152
  },
  "228": {
    "address": "ESTRADA DOS VIEIRAS S/N - PACIÊNCIA - RIO DE JANEIRO/RJ, Rio de Janeiro - RJ, Brasil",
    "name": "CIEP RAUL RYFF",
    "lat": -22.9178121,
    "lon": -43.6318588
  },
  "229": {
    "address": "ESTRADA DO CAMBOATA, SN, Rio de Janeiro - RJ, Brasil",
    "name": "CIEP RAUL SEIXAS",
    "lat": -22.6727112,
    "lon": -43.2773706
  },
  "230": {
    "address": "RUA MORANGA, S/N, Rio de Janeiro - RJ, Brasil",
    "name": "CIEP RAYMUNDO OTTONI DE CASTRO MAYA",
    "lat": -22.9106102,
    "lon": -43.5834047
  },
  "231": {
    "address": "ESTRADA DA ILHA DE GUARATIBA, S/N, Rio de Janeiro - RJ, Brasil",
    "name": "CIEP ROBERTO BURLE MARX",
    "lat": null,
    "lon": null
  },
  "232": {
    "address": "AVENIDA CESARIO DE MELO, 11485 - PACIÊNCIA - RIO DE JANEIRO/RJ, Rio de Janeiro - RJ, Brasil",
    "name": "CIEP ROBERTO MORENA",
    "lat": -22.920719,
    "lon": -43.6418099
  },
  "233": {
    "address": "RUA PROFESSOR JOAO BRUNO LOBO S/N, Rio de Janeiro - RJ, Brasil",
    "name": "CIEP RUBENS PAIVA",
    "lat": null,
    "lon": null
  },
  "234": {
    "address": "AV. HEITOR BELTRÃO S/N, Rio de Janeiro - RJ, Brasil",
    "name": "CIEP SAMUEL WAINER",
    "lat": -22.9194093,
    "lon": -43.2213257
  },
  "235": {
    "address": "ESTRADA DO ENGENHO NOVO S/N, Rio de Janeiro - RJ, Brasil",
    "name": "CIEP THOMAS JEFFERSON",
    "lat": -22.8345799,
    "lon": -43.4085982
  },
  "236": {
    "address": "RUA TAMARANA, SN - STA MARGARIDA, Rio de Janeiro - RJ, Brasil",
    "name": "CIEP TOGO RENAN SOARES KANELA",
    "lat": -22.8916929,
    "lon": -43.6018768
  },
  "237": {
    "address": "RUA PAULINO DO SACRAMENTO, S/N, Rio de Janeiro - RJ, Brasil",
    "name": "CIEP VILA KENNEDY",
    "lat": -22.8527849,
    "lon": -43.4907694
  },
  "238": {
    "address": "AV. DOS CAMPEOES S/N, Rio de Janeiro - RJ, Brasil",
    "name": "CIEP YURI GAGARIN",
    "lat": -22.8533613,
    "lon": -43.2559799
  },
  "239": {
    "address": "RUA ARNALDO GUINLE S/N, Rio de Janeiro - RJ, Brasil",
    "name": "CIEP ZUMBI DOS PALMARES",
    "lat": -22.826855,
    "lon": -43.3557875
  },
  "240": {
    "address": "ESTRADA RODRIGUES CALDAS 3400 COLONIA, Rio de Janeiro - RJ, Brasil",
    "name": "CLASSE EM COOPERAÇÃO JULIANO MOREIRA",
    "lat": -22.9342094,
    "lon": -43.3975874
  },
  "241": {
    "address": "RUA PROFESSORA PAULA AQUILES, 55, Rio de Janeiro - RJ, Brasil",
    "name": "CLUBE BENEFICENTE DOS SARGENTOS DA MARINHA",
    "lat": -22.8478099,
    "lon": -43.3069129
  },
  "242": {
    "address": "RUA BARÃO DE ITAPAGIPE, 154, Rio de Janeiro - RJ, Brasil",
    "name": "CLUBE BRADESCO",
    "lat": -22.9187293,
    "lon": -43.2098383
  },
  "243": {
    "address": "AV. EPITÁCIO PESSOA S/N, Rio de Janeiro - RJ, Brasil",
    "name": "CLUBE CAIÇARAS",
    "lat": -22.9637355,
    "lon": -43.2037567
  },
  "244": {
    "address": "RUA MARIO RIBEIRO S/N (PORTÃO DO GINÁSIO), Rio de Janeiro - RJ, Brasil",
    "name": "CLUBE DE REGATAS DO FLAMENGO",
    "lat": null,
    "lon": null
  },
  "245": {
    "address": "RUA RICARDO MACHADO, 523, PORTÃO 16,  Rio de Janeiro - RJ, Brasil",
    "name": "CLUBE DE REGATAS VASCO DA GAMA",
    "lat": null,
    "lon": null
  },
  "246": {
    "address": "RUA ULISSES GUIMARÃES, S/N, Rio de Janeiro - RJ, Brasil",
    "name": "CLUBE DO SERVIDOR MUNICIPAL",
    "lat": -22.9093692,
    "lon": -43.5298619
  },
  "247": {
    "address": "AVENIDA ERNANI CARDOSO, 183, Rio de Janeiro - RJ, Brasil",
    "name": "CLUBE DOS SUBOFICIAIS E SARGENTOS DA AERONÁUTICA",
    "lat": -22.8826026,
    "lon": -43.3343685
  },
  "248": {
    "address": "TRAVESSA CARLOS XAVIER, 96, Rio de Janeiro - RJ, Brasil",
    "name": "CLUBE DOS SUBTENENTES E SARGENTOS DO CORPO DE BOMBEIROS",
    "lat": -22.8761426,
    "lon": -43.3440793
  },
  "249": {
    "address": "RUA AGUIAR MOREIRA 555, Rio de Janeiro - RJ, Brasil",
    "name": "CLUBE DOS TAIFEIROS DA AERONAUTICA",
    "lat": -22.86806,
    "lon": -43.2503196
  },
  "250": {
    "address": "PRAÇA CORONEL EUGENIO FRANCO 2, Rio de Janeiro - RJ, Brasil",
    "name": "CLUBE MARIMBAS",
    "lat": null,
    "lon": null
  },
  "251": {
    "address": "RUA JARDIM BOTÂNICO, 391, Rio de Janeiro - RJ, Brasil",
    "name": "CLUBE MILITAR - SEDE LAGOA",
    "lat": -22.9613982,
    "lon": -43.2139182
  },
  "252": {
    "address": "AV. BORGES DE MEDEIROS 701, Rio de Janeiro - RJ, Brasil",
    "name": "CLUBE MONTE LÍBANO",
    "lat": -22.9809114,
    "lon": -43.2149314
  },
  "253": {
    "address": "RUA HADDOCK LOBO 359, Rio de Janeiro - RJ, Brasil",
    "name": "CLUBE MUNICIPAL",
    "lat": -22.9164493,
    "lon": -43.2094926
  },
  "254": {
    "address": "RUA POMPEU LOUREIRO, 116,  Rio de Janeiro - RJ, Brasil",
    "name": "CLUBE OLYMPICO - PL 116",
    "lat": -22.9722935,
    "lon": -43.1918572
  },
  "255": {
    "address": "AV. BRÁS DE PINA, 651, Rio de Janeiro - RJ, Brasil",
    "name": "CLÍNICA DA FAMÍLIA ALOYSIO AUGUSTO NOVIS",
    "lat": -22.8383509,
    "lon": -43.2843842
  },
  "256": {
    "address": "AVENIDA NOSSA SENHORA DA PENHA, 42, Rio de Janeiro - RJ, Brasil",
    "name": "CLÍNICA DA FAMÍLIA DOUTOR FELIPPE CARDOSO",
    "lat": -22.8451674,
    "lon": -43.2819336
  },
  "257": {
    "address": "RUA AMARAL COSTA, 321, Rio de Janeiro - RJ, Brasil",
    "name": "CNA",
    "lat": -22.903872,
    "lon": -43.5644123
  },
  "258": {
    "address": "ESTRADA DA CACUIA, 1340, Rio de Janeiro - RJ, Brasil",
    "name": "COC - UNIDADE COCOTÁ",
    "lat": -22.8091218,
    "lon": -43.183091
  },
  "259": {
    "address": "AV. ENGENHEIRO ASSIS RIBEIRO 433, Rio de Janeiro - RJ, Brasil",
    "name": "COLEGIO AMERICO DE OLIVEIRA",
    "lat": -22.8626698,
    "lon": -43.3696657
  },
  "260": {
    "address": "ESTRADA CURUMAÚ, 330, TAQUARA, Rio de Janeiro - RJ, Brasil",
    "name": "COLEGIO AÇÃO 1 - CURUMAÚ - TAQUARA",
    "lat": -22.9165305,
    "lon": -43.4015747
  },
  "261": {
    "address": "AV. MINISTRO EDGARD ROMERO 870, Rio de Janeiro - RJ, Brasil",
    "name": "COLEGIO BAHIENSE",
    "lat": -22.863571,
    "lon": -43.3328465
  },
  "262": {
    "address": "RUA CANDIDO MAGALHAES, 177, Rio de Janeiro - RJ, Brasil",
    "name": "COLEGIO BAHIENSE",
    "lat": -22.9057896,
    "lon": -43.5641371
  },
  "263": {
    "address": "PRACA DO AVIAO 1, Rio de Janeiro - RJ, Brasil",
    "name": "COLEGIO BRIGADEIRO NEWTON BRAGA",
    "lat": -22.8157323,
    "lon": -43.2215917
  },
  "264": {
    "address": "RUA FERREIRA DE ANDRADE, 629, Rio de Janeiro - RJ, Brasil",
    "name": "COLEGIO CELIO RODRIGUES",
    "lat": -22.8907385,
    "lon": -43.270898
  },
  "265": {
    "address": "RUA MARQUES DE LEAO 9, Rio de Janeiro - RJ, Brasil",
    "name": "COLEGIO ERNANI CARDOSO",
    "lat": -22.9026928,
    "lon": -43.2713945
  },
  "266": {
    "address": "RUA MARANHAO 530, Rio de Janeiro - RJ, Brasil",
    "name": "COLEGIO ESTADUAL ANTONIO HOUAISS",
    "lat": -22.7735078,
    "lon": -43.554303
  },
  "267": {
    "address": "RUA PASTOR JOSÉ RAMALHO, 98, Rio de Janeiro - RJ, Brasil",
    "name": "COLEGIO ESTADUAL JOEL DE OLIVEIRA",
    "lat": -22.8531877,
    "lon": -43.3806532
  },
  "268": {
    "address": "PRAÇA IGARA, 40, Rio de Janeiro - RJ, Brasil",
    "name": "COLEGIO ESTADUAL JORNALISTA ARTUR DA TÁVOLA",
    "lat": -22.9120098,
    "lon": -43.6150267
  },
  "269": {
    "address": "RUA DA FEIRA 77, Rio de Janeiro - RJ, Brasil",
    "name": "COLEGIO ESTADUAL LEOPOLDINA DA SILVEIRA",
    "lat": -22.8532782,
    "lon": -43.0984698
  },
  "270": {
    "address": "RUA PIO DUTRA 353, Rio de Janeiro - RJ, Brasil",
    "name": "COLEGIO ESTADUAL MENDES DE MORAIS",
    "lat": -22.7917606,
    "lon": -43.1726346
  },
  "271": {
    "address": "AVENIDA CESÁRIO DE MELO, 6851, Rio de Janeiro - RJ, Brasil",
    "name": "COLEGIO ESTADUAL MISSIONÁRIO MARIO WAY",
    "lat": -22.9003946,
    "lon": -43.5497608
  },
  "272": {
    "address": "RUA SARGENTO JOAO LOPES 315, Rio de Janeiro - RJ, Brasil",
    "name": "COLEGIO ESTADUAL PROFESSORA MARIA DE LOURDES DE OLIVEIRA LAVÔR",
    "lat": -22.8112067,
    "lon": -43.1916236
  },
  "273": {
    "address": "RUA CANDIDO FIGUEIREDO 181, Rio de Janeiro - RJ, Brasil",
    "name": "COLEGIO ESTADUAL STELLA MATUTINA",
    "lat": -22.6721988,
    "lon": -43.2615647
  },
  "274": {
    "address": "RUA DAS ROSAS, 113, Rio de Janeiro - RJ, Brasil",
    "name": "COLEGIO FUTURO VIP",
    "lat": -22.8850636,
    "lon": -43.3633282
  },
  "275": {
    "address": "RUA LUCIDIO LAGO 427, Rio de Janeiro - RJ, Brasil",
    "name": "COLEGIO HELIO ALONSO",
    "lat": -22.8994413,
    "lon": -43.2740978
  },
  "276": {
    "address": "RUA MARECHAL ABREU LIMA 291, Rio de Janeiro - RJ, Brasil",
    "name": "COLEGIO JAIR AVILLEZ",
    "lat": -22.8722514,
    "lon": -43.4300861
  },
  "277": {
    "address": "RUA COMBU, 116, Rio de Janeiro - RJ, Brasil",
    "name": "COLEGIO JGS",
    "lat": -22.8089424,
    "lon": -43.189089
  },
  "278": {
    "address": "RUA PACHECO DA ROCHA 217, Rio de Janeiro - RJ, Brasil",
    "name": "COLEGIO JOAO XXIII",
    "lat": -22.8598578,
    "lon": -43.3598275
  },
  "279": {
    "address": "ESTRADA DO GALEAO 1192, Rio de Janeiro - RJ, Brasil",
    "name": "COLEGIO LONDON",
    "lat": -22.8090558,
    "lon": -43.1956947
  },
  "280": {
    "address": "RUA BOLÍVAR, 121,  Rio de Janeiro - RJ, Brasil",
    "name": "COLEGIO MALLET SOARES - B 121",
    "lat": -22.9759467,
    "lon": -43.1919752
  },
  "281": {
    "address": "RUA CLODOALDO DE FREITAS 65, Rio de Janeiro - RJ, Brasil",
    "name": "COLEGIO MARECHAL LOTT",
    "lat": -22.8391292,
    "lon": -43.3756761
  },
  "282": {
    "address": "RUA SÃO FRANCISCO XAVIER 935, Rio de Janeiro - RJ, Brasil",
    "name": "COLEGIO MARIA IMACULADA",
    "lat": -22.906657,
    "lon": -43.2397091
  },
  "283": {
    "address": "AVENIDA IMPERATRIZ LEOPOLDINA, 455, Rio de Janeiro - RJ, Brasil",
    "name": "COLEGIO MARISTA SÃO JOSÉ - BARRA",
    "lat": -22.969373,
    "lon": -43.3821694
  },
  "284": {
    "address": "RUA FRANCISCO PORTELA, 126, Rio de Janeiro - RJ, Brasil",
    "name": "COLEGIO MERCEDARIO PIO XII MERCES",
    "lat": -22.8726658,
    "lon": -43.1039659
  },
  "285": {
    "address": "RUA MERCÚRIO, 293, Rio de Janeiro - RJ, Brasil",
    "name": "COLEGIO MERCÚRIO",
    "lat": -22.8715138,
    "lon": -43.4941913
  },
  "286": {
    "address": "RUA BARAO DO BOM RETIRO 726, Rio de Janeiro - RJ, Brasil",
    "name": "COLEGIO PEDRO II - UNIDADE ENGENHO NOVO",
    "lat": -22.4214175,
    "lon": -42.960482
  },
  "287": {
    "address": "RUA BERNARDO DE VASCONCELOS, 941, Rio de Janeiro - RJ, Brasil",
    "name": "COLEGIO PEDRO II - UNIDADE I",
    "lat": -22.8756882,
    "lon": -43.4393665
  },
  "288": {
    "address": "RUA NASCIMENTO SILVA 45, Rio de Janeiro - RJ, Brasil",
    "name": "COLEGIO PINHEIRO GUIMARAES",
    "lat": -22.9819867,
    "lon": -43.2071432
  },
  "289": {
    "address": "RUA MATIOLA, 305, Rio de Janeiro - RJ, Brasil",
    "name": "COLEGIO PIO XII",
    "lat": -22.8465866,
    "lon": -43.376046
  },
  "290": {
    "address": "RUA JOAO VICENTE, 1.521, Rio de Janeiro - RJ, Brasil",
    "name": "COLEGIO PROGRESSAO",
    "lat": -22.8783382,
    "lon": -43.3372462
  },
  "291": {
    "address": "RUA LOPES DA CRUZ 72, Rio de Janeiro - RJ, Brasil",
    "name": "COLEGIO QI METROPOLITANO",
    "lat": -22.904072,
    "lon": -43.2833222
  },
  "292": {
    "address": "AV GENARO DE CARVALHO, 1379, Rio de Janeiro - RJ, Brasil",
    "name": "COLEGIO RECANTO",
    "lat": -23.0165281,
    "lon": -43.4583847
  },
  "293": {
    "address": "AVENIDA CESARIO DE MELO, 3670, Rio de Janeiro - RJ, Brasil",
    "name": "COLEGIO ROSARIO",
    "lat": -22.9063071,
    "lon": -43.5666795
  },
  "294": {
    "address": "ESTRADA DA MERINGUAVA 93, Rio de Janeiro - RJ, Brasil",
    "name": "COLEGIO SABER- MERINGUAVA",
    "lat": null,
    "lon": null
  },
  "295": {
    "address": "RUA HERMINIA 2, Rio de Janeiro - RJ, Brasil",
    "name": "COLEGIO SANTA MONICA",
    "lat": -22.7020964,
    "lon": -43.4417116
  },
  "296": {
    "address": "RUA PADRE VENTURA 184, Rio de Janeiro - RJ, Brasil",
    "name": "COLEGIO SANTA MONICA",
    "lat": -22.9290304,
    "lon": -43.3745184
  },
  "297": {
    "address": "RUA FERNANDES MARINHO 75 OSWALDO CRUZ, Rio de Janeiro - RJ, Brasil",
    "name": "COLEGIO SUL AMERICANO",
    "lat": -22.8677426,
    "lon": -43.3493915
  },
  "298": {
    "address": "RUA TACARATU 360, Rio de Janeiro - RJ, Brasil",
    "name": "COLEGIO SUL AMERICANO",
    "lat": -22.8495017,
    "lon": -43.359757
  },
  "299": {
    "address": "AV. VIEIRA SOUTO 22, Rio de Janeiro - RJ, Brasil",
    "name": "COLEGIO SÃO PAULO",
    "lat": -22.9862352,
    "lon": -43.211392
  },
  "300": {
    "address": "RUA DR. IBRAIM HANNAS, 95, Rio de Janeiro - RJ, Brasil",
    "name": "COLÉGIO ADVENTISTA DE CAMPO GRANDE",
    "lat": -22.9121725,
    "lon": -43.5619695
  },
  "301": {
    "address": "RUA BARÃO DO BOM RETIRO, 941, Rio de Janeiro - RJ, Brasil",
    "name": "COLÉGIO AIACOM I (IGREJA)",
    "lat": -22.9204929,
    "lon": -43.2594347
  },
  "302": {
    "address": "RUA BARÃO DO BOM RETIRO, 920, Rio de Janeiro - RJ, Brasil",
    "name": "COLÉGIO AIACOM II",
    "lat": -22.9042789,
    "lon": -43.2697221
  },
  "303": {
    "address": "RUA BULHÕES MARCIAL, 149, Rio de Janeiro - RJ, Brasil",
    "name": "COLÉGIO ALCÂNTARA (ANTIGA 1ª IG.BATISTA RENOVADA DE PARADA DE LUCAS)",
    "lat": -22.8058807,
    "lon": -43.3055987
  },
  "304": {
    "address": "RUA BULHÕES MARCIAL, 149, Rio de Janeiro - RJ, Brasil",
    "name": "COLÉGIO ALCÂNTARA (ANTIGA IG.NSA.SRA. DA CONCEIÇÃO)",
    "lat": -22.8058807,
    "lon": -43.3055987
  },
  "305": {
    "address": "RUA BULHÕES MARCIAL, 149, Rio de Janeiro - RJ, Brasil",
    "name": "COLÉGIO ALCÂNTARA (ANTIGA IG.NSA.SRA. DA GLORIA)",
    "lat": -22.8058807,
    "lon": -43.3055987
  },
  "306": {
    "address": "AVENIDA GUINARD, 50, Rio de Janeiro - RJ, Brasil",
    "name": "COLÉGIO ALFA CEM - UNIDADE RECREIO",
    "lat": null,
    "lon": null
  },
  "307": {
    "address": "ESTRADA DE JACAREPAGUÁ, 6816, Rio de Janeiro - RJ, Brasil",
    "name": "COLÉGIO ALFA CEM BILINGUE - UNIDADE JACAREPAGUÁ",
    "lat": -22.9881415,
    "lon": -43.326913
  },
  "308": {
    "address": "RUA CÂNDIDO MENDES, 109, Rio de Janeiro - RJ, Brasil",
    "name": "COLÉGIO ANGELORUM",
    "lat": -22.9204149,
    "lon": -43.18225
  },
  "309": {
    "address": "RUA HERÁCLITO DA GRAÇA ARANHA, 234, CONDOMÍNIO NOVA IPANEMA, Rio de Janeiro - RJ, Brasil",
    "name": "COLÉGIO ANGLO AMERICANO",
    "lat": null,
    "lon": null
  },
  "310": {
    "address": "AV. AREIA BRANCA, 1151, Rio de Janeiro - RJ, Brasil",
    "name": "COLÉGIO APOLLO 12 (APOLINHO)",
    "lat": -22.936936,
    "lon": -43.687571
  },
  "311": {
    "address": "RUA FERNANDA, 560, Rio de Janeiro - RJ, Brasil",
    "name": "COLÉGIO APOLLO 12 - UNIDADE RUA FERNANDA",
    "lat": -22.9299311,
    "lon": -43.6775042
  },
  "312": {
    "address": "RUA ITUVERAVA 902, Rio de Janeiro - RJ, Brasil",
    "name": "COLÉGIO BAHIENSE",
    "lat": -22.94355,
    "lon": -43.3322226
  },
  "313": {
    "address": "AVENIDA ÉRICO VERÍSSIMO 780, Rio de Janeiro - RJ, Brasil",
    "name": "COLÉGIO BATISTA DO RIO DE JANEIRO",
    "lat": -23.0103143,
    "lon": -43.3073098
  },
  "314": {
    "address": "RUA JOSÉ HIGINO 416, Rio de Janeiro - RJ, Brasil",
    "name": "COLÉGIO BATISTA SHEPARD",
    "lat": -22.933411,
    "lon": -43.235691
  },
  "315": {
    "address": "RUA PROFESSOR ANTÔNIO HENRIQUE DE NORONHA, 2,  Rio de Janeiro - RJ, Brasil",
    "name": "COLÉGIO BRASILEIRO DE SÃO CHRISTÓVÃO",
    "lat": null,
    "lon": null
  },
  "316": {
    "address": "RUA RICARDO MACHADO, 324,  Rio de Janeiro - RJ, Brasil",
    "name": "COLÉGIO CATORZE DE NOVEMBRO",
    "lat": -22.8884745,
    "lon": -43.2324265
  },
  "317": {
    "address": "RUA RETIRO DOS ARTISTAS 589, Rio de Janeiro - RJ, Brasil",
    "name": "COLÉGIO CRUZEIRO - UNIDADE JACAREPAGUÁ",
    "lat": -22.9342211,
    "lon": -43.3585869
  },
  "318": {
    "address": "RUA CARLOS DE CARVALHO, 76,  Rio de Janeiro - RJ, Brasil",
    "name": "COLÉGIO CRUZEIRO",
    "lat": -22.9111231,
    "lon": -43.1895866
  },
  "319": {
    "address": "RUA QUIRIRIM 670, Rio de Janeiro - RJ, Brasil",
    "name": "COLÉGIO CURSO DESAFIO",
    "lat": -22.8878227,
    "lon": -43.3567616
  },
  "320": {
    "address": "AV. MEM DE SÁ, 302,  Rio de Janeiro - RJ, Brasil",
    "name": "COLÉGIO CURSO TAMANDARÉ",
    "lat": -22.9111578,
    "lon": -43.1917772
  },
  "321": {
    "address": "AV. ENGENHEIRO RICHARD 107, Rio de Janeiro - RJ, Brasil",
    "name": "COLÉGIO DA COMPANHIA DE MARIA",
    "lat": -22.9220302,
    "lon": -43.2633697
  },
  "322": {
    "address": "RUA BATISTA DA COSTA, S/N, Rio de Janeiro - RJ, Brasil",
    "name": "COLÉGIO DE APLICAÇÃO DA UFRJ (RUA BATISTA DA COSTA)",
    "lat": -22.9645181,
    "lon": -43.2171806
  },
  "323": {
    "address": "RUA JOSÉ JOAQUIM SEABRA, S/N, Rio de Janeiro - RJ, Brasil",
    "name": "COLÉGIO DE APLICAÇÃO DA UFRJ (RUA JJ SEABRA)",
    "lat": -22.9645048,
    "lon": -43.2157785
  },
  "324": {
    "address": "AV ANDRÉ VESÁLIO 262, Rio de Janeiro - RJ, Brasil",
    "name": "COLÉGIO DIMITRI MARQUES",
    "lat": null,
    "lon": null
  },
  "325": {
    "address": "RUA LOPES QUINTAS, 274, Rio de Janeiro - RJ, Brasil",
    "name": "COLÉGIO DIVINA PROVIDÊNCIA (1)",
    "lat": -22.9641185,
    "lon": -43.2210888
  },
  "326": {
    "address": "RUA LOPES QUINTAS, 274, Rio de Janeiro - RJ, Brasil",
    "name": "COLÉGIO DIVINA PROVIDÊNCIA",
    "lat": -22.9641185,
    "lon": -43.2210888
  },
  "327": {
    "address": "RUA DEZOITO DE OUTUBRO 95, Rio de Janeiro - RJ, Brasil",
    "name": "COLÉGIO DOS SANTOS ANJOS",
    "lat": -22.9359223,
    "lon": -43.2412602
  },
  "328": {
    "address": "RUA ENGENHEIRO ROBERTO SAMSON, 5, Rio de Janeiro - RJ, Brasil",
    "name": "COLÉGIO E CURSO EXPRESSÃO",
    "lat": -22.8137935,
    "lon": -43.3724074
  },
  "329": {
    "address": "TRAVESSA DA CONFIANÇA, 15, Rio de Janeiro - RJ, Brasil",
    "name": "COLÉGIO E CURSO PROGRESSÃO - UNIDADE II",
    "lat": -22.8398079,
    "lon": -43.3099092
  },
  "330": {
    "address": "RUA ANTÔNIO BASÍLIO 135, Rio de Janeiro - RJ, Brasil",
    "name": "COLÉGIO ELZA CAMPOS",
    "lat": -22.9268398,
    "lon": -43.2377527
  },
  "331": {
    "address": "RUA TEJUPÁ, 158, Rio de Janeiro - RJ, Brasil",
    "name": "COLÉGIO ESPLENDOR",
    "lat": -22.8407029,
    "lon": -43.3158334
  },
  "332": {
    "address": "LARGO DO MACHADO 20, Rio de Janeiro - RJ, Brasil",
    "name": "COLÉGIO ESTADUAL AMARO CAVALCANTI",
    "lat": -21.9703035,
    "lon": -42.0083725
  },
  "333": {
    "address": "RUA MARIZ E BARROS 273, Rio de Janeiro - RJ, Brasil",
    "name": "COLÉGIO ESTADUAL ANTÔNIO PRADO JÚNIOR",
    "lat": -22.9137517,
    "lon": -43.2169523
  },
  "334": {
    "address": "ESTRADA DO ENGENHO 442, Rio de Janeiro - RJ, Brasil",
    "name": "COLÉGIO ESTADUAL BANGU",
    "lat": -22.8604169,
    "lon": -43.4725679
  },
  "335": {
    "address": "RUA AMARAL, 26, Rio de Janeiro - RJ, Brasil",
    "name": "COLÉGIO ESTADUAL CHICO ANYSIO",
    "lat": -22.8828528,
    "lon": -43.2518052
  },
  "336": {
    "address": "RUA PEREIRA DA COSTA, 101, Rio de Janeiro - RJ, Brasil",
    "name": "COLÉGIO ESTADUAL COMPOSITOR MANACEIA JOSE DE ANDRADE",
    "lat": -22.8690904,
    "lon": -43.3323402
  },
  "337": {
    "address": "RUA HENRIQUE SCHEID, 580, Rio de Janeiro - RJ, Brasil",
    "name": "COLÉGIO ESTADUAL DOM HÉLDER CÂMARA",
    "lat": -22.8891782,
    "lon": -43.2896653
  },
  "338": {
    "address": "RUA TENENTE RONALDO SANTORO S/N, Rio de Janeiro - RJ, Brasil",
    "name": "COLÉGIO ESTADUAL DOUTOR ALBERT SABIN",
    "lat": null,
    "lon": null
  },
  "339": {
    "address": "RUA MANOEL LOURENÇO DOS SANTOS, S/N, Rio de Janeiro - RJ, Brasil",
    "name": "COLÉGIO ESTADUAL ERICH WALTER HEINE",
    "lat": -22.9049674,
    "lon": -43.7014652
  },
  "340": {
    "address": "RUA SÃO MAURÍCIO, 87, Rio de Janeiro - RJ, Brasil",
    "name": "COLÉGIO ESTADUAL GOMES FREIRE DE ANDRADE",
    "lat": -22.8427836,
    "lon": -43.2814383
  },
  "341": {
    "address": "RUA CUBA 320, Rio de Janeiro - RJ, Brasil",
    "name": "COLÉGIO ESTADUAL HEITOR LIRA",
    "lat": -22.8298316,
    "lon": -43.2752524
  },
  "342": {
    "address": "RUA VENCESLAU 225, Rio de Janeiro - RJ, Brasil",
    "name": "COLÉGIO ESTADUAL HISPANO BRASILEIRO JOÃO CABRAL DE MELO NETO",
    "lat": -22.9021958,
    "lon": -43.2846786
  },
  "343": {
    "address": "RUA BELFORT ROXO, 433,  Rio de Janeiro - RJ, Brasil",
    "name": "COLÉGIO ESTADUAL INFANTE DOM HENRIQUE - BRO 433",
    "lat": -22.9650776,
    "lon": -43.1755997
  },
  "344": {
    "address": "RUA EDMO ZARIFE, S/N, Rio de Janeiro - RJ, Brasil",
    "name": "COLÉGIO ESTADUAL JORGE ZARUR",
    "lat": -22.849882,
    "lon": -43.4877643
  },
  "345": {
    "address": "ESTRADA DO ITARARÉ N. 690, Rio de Janeiro - RJ, Brasil",
    "name": "COLÉGIO ESTADUAL JORNALISTA TIM LOPES",
    "lat": -22.8604987,
    "lon": -43.2674416
  },
  "346": {
    "address": "AVENIDA VINTE E OITO DE SETEMBRO 109 FUNDOS, Rio de Janeiro - RJ, Brasil",
    "name": "COLÉGIO ESTADUAL JOÃO ALFREDO",
    "lat": null,
    "lon": null
  },
  "347": {
    "address": "RUA DA CHITA 419, Rio de Janeiro - RJ, Brasil",
    "name": "COLÉGIO ESTADUAL JOÃO SALIM MIGUEL",
    "lat": -22.8707312,
    "lon": -43.4637613
  },
  "348": {
    "address": "RUA GENERAL CALDWELL, 182,  Rio de Janeiro - RJ, Brasil",
    "name": "COLÉGIO ESTADUAL JULIA KUBITSCHEK",
    "lat": -22.9072138,
    "lon": -43.1926819
  },
  "349": {
    "address": "ESTRADA GENERAL CANROBERT PEREIRA DA COSTA, 20, Rio de Janeiro - RJ, Brasil",
    "name": "COLÉGIO ESTADUAL MADRE TEREZA DE CALCUTA",
    "lat": -22.8745602,
    "lon": -43.418799
  },
  "350": {
    "address": "AV. BRASIL 19644, Rio de Janeiro - RJ, Brasil",
    "name": "COLÉGIO ESTADUAL MARECHAL JOAO BAPTISTA DE MATTOS",
    "lat": -22.8476339,
    "lon": -43.2480526
  },
  "351": {
    "address": "RUA BARBOSA, 229, Rio de Janeiro - RJ, Brasil",
    "name": "COLÉGIO ESTADUAL MARIA NAZARETH CAVALCANTI",
    "lat": -22.8772339,
    "lon": -43.3224143
  },
  "352": {
    "address": "EST. PORTO NACIONA 293, Rio de Janeiro - RJ, Brasil",
    "name": "COLÉGIO ESTADUAL MIGUEL DE SANTA MARIA MOCHON",
    "lat": null,
    "lon": null
  },
  "353": {
    "address": "RUA ALMIRANTE ALEXANDRINO 2495, Rio de Janeiro - RJ, Brasil",
    "name": "COLÉGIO ESTADUAL MONTEIRO DE CARVALHO",
    "lat": -22.9348434,
    "lon": -43.1998625
  },
  "354": {
    "address": "PRAÇA ARGENTINA, 20,  Rio de Janeiro - RJ, Brasil",
    "name": "COLÉGIO ESTADUAL OLAVO BILAC",
    "lat": -22.8976416,
    "lon": -43.2274981
  },
  "355": {
    "address": "RUA BARÃO DE UBÁ, 399, Rio de Janeiro - RJ, Brasil",
    "name": "COLÉGIO ESTADUAL PAULO DE FRONTIN",
    "lat": -22.9162538,
    "lon": -43.2112842
  },
  "356": {
    "address": "RUA REPÚBLICA DO PERU, 104,  Rio de Janeiro - RJ, Brasil",
    "name": "COLÉGIO ESTADUAL PEDRO ÁLVARES CABRAL - RP 104",
    "lat": -22.9677783,
    "lon": -43.1809487
  },
  "357": {
    "address": "AV. BARTOLOMEU MITRE 701, Rio de Janeiro - RJ, Brasil",
    "name": "COLÉGIO ESTADUAL PROFESSOR ANTÔNIO MARIA TEIXEIRA FILHO",
    "lat": -22.9862321,
    "lon": -43.2226587
  },
  "358": {
    "address": "AV. DOS DEMOCRÁTICOS, 271, Rio de Janeiro - RJ, Brasil",
    "name": "COLÉGIO ESTADUAL PROFESSOR CLOVIS MONTEIRO",
    "lat": -22.8780493,
    "lon": -43.255532
  },
  "359": {
    "address": "RUA CORONEL TAMARINDO 2846, Rio de Janeiro - RJ, Brasil",
    "name": "COLÉGIO ESTADUAL PROFESSOR DALTRO SANTOS",
    "lat": -22.8752849,
    "lon": -43.468673
  },
  "360": {
    "address": "RUA GENERAL CORDOLINO AZEVEDO 110, Rio de Janeiro - RJ, Brasil",
    "name": "COLÉGIO ESTADUAL PROFESSOR FERNANDO ANTÔNIO RAJA GABAGLIA",
    "lat": null,
    "lon": null
  },
  "361": {
    "address": "RUA SOLDADO JOÃO FRANCO, 10, Rio de Janeiro - RJ, Brasil",
    "name": "COLÉGIO ESTADUAL PROFESSOR MANUEL MAURÍCIO DE ALBUQUERQUE",
    "lat": -22.8189137,
    "lon": -43.3899561
  },
  "362": {
    "address": "RUA OLINDA ELLIS, 63, Rio de Janeiro - RJ, Brasil",
    "name": "COLÉGIO ESTADUAL PROFESSORA JEANNETTE DE SOUSA COELHO MANNARINO",
    "lat": -22.9102514,
    "lon": -43.5590583
  },
  "363": {
    "address": "AV. MONSENHOR FELIX 87, Rio de Janeiro - RJ, Brasil",
    "name": "COLÉGIO ESTADUAL RODRIGO OTÁVIO FILHO BRASIL-ITÁLIA",
    "lat": -22.8334177,
    "lon": -43.3280824
  },
  "364": {
    "address": "RUA DOS INVÁLIDOS, 121,  Rio de Janeiro - RJ, Brasil",
    "name": "COLÉGIO ESTADUAL SOUZA AGUIAR",
    "lat": -22.9116789,
    "lon": -43.1847327
  },
  "365": {
    "address": "AV. DE SANTA CRUZ, 8040, Rio de Janeiro - RJ, Brasil",
    "name": "COLÉGIO ESTADUAL STUART EDGAR ANGEL JONES",
    "lat": -22.8814902,
    "lon": -43.4982251
  },
  "366": {
    "address": "AV. DAS AMERICAS 6120 JUNTO AO COND. PORTAL, Rio de Janeiro - RJ, Brasil",
    "name": "COLÉGIO ESTADUAL VICENTE JANNUZZI",
    "lat": null,
    "lon": null
  },
  "367": {
    "address": "RUA APIACÁS, 320, Rio de Janeiro - RJ, Brasil",
    "name": "COLÉGIO FORÇA MÁXIMA",
    "lat": -22.9215529,
    "lon": -43.3726271
  },
  "368": {
    "address": "RUA DA JUSTIÇA, 50, Rio de Janeiro - RJ, Brasil",
    "name": "COLÉGIO FORÇA MÁXIMA",
    "lat": -22.8407458,
    "lon": -43.3079202
  },
  "369": {
    "address": "RUA SÃO SALVADOR 49, Rio de Janeiro - RJ, Brasil",
    "name": "COLÉGIO FORÇA MÁXIMA",
    "lat": -22.9341405,
    "lon": -43.1801078
  },
  "370": {
    "address": "RUA EDGARD WERNECK, 431, Rio de Janeiro - RJ, Brasil",
    "name": "COLÉGIO FRANCISCANO SANTO ANTÔNIO",
    "lat": -22.937,
    "lon": -43.3526257
  },
  "371": {
    "address": "RUA TIBOIM 28, Rio de Janeiro - RJ, Brasil",
    "name": "COLÉGIO FRANKLIN CARNEIRO",
    "lat": -22.826978,
    "lon": -43.2824935
  },
  "372": {
    "address": "RUA BARÃO, 1140, Rio de Janeiro - RJ, Brasil",
    "name": "COLÉGIO GPI (UNIDADE I)",
    "lat": -22.8950665,
    "lon": -43.3572692
  },
  "373": {
    "address": "RUA BARAO, 1310, Rio de Janeiro - RJ, Brasil",
    "name": "COLÉGIO GPI (UNIDADE II)",
    "lat": -22.8950665,
    "lon": -43.3572692
  },
  "374": {
    "address": "PRAIA DE BOTAFOGO 266, Rio de Janeiro - RJ, Brasil",
    "name": "COLÉGIO IMACULADA CONCEIÇÃO",
    "lat": -22.9431048,
    "lon": -43.1829856
  },
  "375": {
    "address": "RUA ARISTIDES CAIRE, 141, Rio de Janeiro - RJ, Brasil",
    "name": "COLÉGIO IMACULADO CORAÇÃO DE MARIA",
    "lat": -22.8976114,
    "lon": -43.2770752
  },
  "376": {
    "address": "ESTRADA DE JACAREPAGUÁ 7120, Rio de Janeiro - RJ, Brasil",
    "name": "COLÉGIO INTELLECTUS",
    "lat": -22.9881415,
    "lon": -43.326913
  },
  "377": {
    "address": "RUA SUL AMÉRICA, 1917, Rio de Janeiro - RJ, Brasil",
    "name": "COLÉGIO INTELLECTUS",
    "lat": -22.8738053,
    "lon": -43.4681413
  },
  "378": {
    "address": "RUA CAVIANA, 616, Rio de Janeiro - RJ, Brasil",
    "name": "COLÉGIO JOÃO DE BARRO",
    "lat": -22.9168669,
    "lon": -43.3729398
  },
  "379": {
    "address": "AVENIDA MINISTRO ARY FRANCO, 608, Rio de Janeiro - RJ, Brasil",
    "name": "COLÉGIO JOÃO PAULO I",
    "lat": null,
    "lon": null
  },
  "380": {
    "address": "RUA PEDRO DE CARVALHO 103, Rio de Janeiro - RJ, Brasil",
    "name": "COLÉGIO KIDS UP",
    "lat": -22.9083116,
    "lon": -43.2884119
  },
  "381": {
    "address": "RUA GENERAL POLIDORO, 36, Rio de Janeiro - RJ, Brasil",
    "name": "COLÉGIO LOGOSÓFICO GONZÁLEZ PECOTCHE",
    "lat": -22.9523764,
    "lon": -43.1833646
  },
  "382": {
    "address": "RUA HADDOCK LOBO 233, Rio de Janeiro - RJ, Brasil",
    "name": "COLÉGIO MARIA RAYTHE",
    "lat": -22.9164493,
    "lon": -43.2094926
  },
  "383": {
    "address": "RUA CONDE DE BONFIM 1067, Rio de Janeiro - RJ, Brasil",
    "name": "COLÉGIO MARISTA SÃO JOSÉ",
    "lat": -22.941905,
    "lon": -43.2507095
  },
  "384": {
    "address": "RUA DOS TOPÁZIOS 375, Rio de Janeiro - RJ, Brasil",
    "name": "COLÉGIO MATRIZ (ANTIGO COLEGIO SALESIANO)",
    "lat": -22.8536778,
    "lon": -43.3506818
  },
  "385": {
    "address": "RUA AMÉRICO BRASILIENSE, 184 - MADUREIRA, Rio de Janeiro - RJ, Brasil",
    "name": "COLÉGIO MATRIZ EDUCAÇÃO - MADUREIRA",
    "lat": -22.8728051,
    "lon": -43.3411474
  },
  "386": {
    "address": "RUA PROFESSOR GONÇALVES, 41, Rio de Janeiro - RJ, Brasil",
    "name": "COLÉGIO MATRIZ EDUCAÇÃO",
    "lat": -22.9103525,
    "lon": -43.5655097
  },
  "387": {
    "address": "RUA DOM ROSALVO DA COSTA RÊGO, 542, Rio de Janeiro - RJ, Brasil",
    "name": "COLÉGIO MOPI - ITANHANGÁ",
    "lat": null,
    "lon": null
  },
  "388": {
    "address": "RUA JOSÉ DA CRUZ RAJO, SN, Rio de Janeiro - RJ, Brasil",
    "name": "COLÉGIO MUNICIPAL FERNANDO RODRIGUES",
    "lat": -22.8273855,
    "lon": -43.3707284
  },
  "389": {
    "address": "RUA SÃO FRANCISCO XAVIER 95, Rio de Janeiro - RJ, Brasil",
    "name": "COLÉGIO MUNICIPAL ORSINA DA FONSECA",
    "lat": -22.906657,
    "lon": -43.2397091
  },
  "390": {
    "address": "AV. LÚCIO COSTA, 17686, Rio de Janeiro - RJ, Brasil",
    "name": "COLÉGIO MX",
    "lat": -23.029364,
    "lon": -43.4687705
  },
  "391": {
    "address": "RUA ALIOMAR HERMÍNIO PEREIRA, N.18, Rio de Janeiro - RJ, Brasil",
    "name": "COLÉGIO NABE",
    "lat": -22.8655648,
    "lon": -43.2571452
  },
  "392": {
    "address": "AVENIDA NELSON CARDOSO, 957, Rio de Janeiro - RJ, Brasil",
    "name": "COLÉGIO NACIONAL UNIDADE JACAREPAGUÁ",
    "lat": -22.9179074,
    "lon": -43.3643662
  },
  "393": {
    "address": "RUA CLARIMUNDO DE MELLO 1195, Rio de Janeiro - RJ, Brasil",
    "name": "COLÉGIO NACIONAL",
    "lat": null,
    "lon": null
  },
  "394": {
    "address": "RUA BARÃO DE MESQUITA 689, Rio de Janeiro - RJ, Brasil",
    "name": "COLÉGIO NOSSA SENHORA DA MISERICÓRDIA",
    "lat": -22.916844,
    "lon": -43.2290711
  },
  "395": {
    "address": "LARGO DA PENHA, 19 (PARQUE SHANGAI), Rio de Janeiro - RJ, Brasil",
    "name": "COLÉGIO NOSSA SENHORA DA PENHA",
    "lat": null,
    "lon": null
  },
  "396": {
    "address": "AV GILKA MACHADO, 1529, Rio de Janeiro - RJ, Brasil",
    "name": "COLÉGIO NOSSA SENHORA DA RESSURREIÇÃO",
    "lat": -23.0181956,
    "lon": -43.4796428
  },
  "397": {
    "address": "AVENIDA DAS AMÉRICAS, 19400, Rio de Janeiro - RJ, Brasil",
    "name": "COLÉGIO NOTRE DAME RECREIO",
    "lat": -23.0183037,
    "lon": -43.502227
  },
  "398": {
    "address": "RUA BARÃO DA TORRE 308, Rio de Janeiro - RJ, Brasil",
    "name": "COLÉGIO NOTRE DAME",
    "lat": -22.9826738,
    "lon": -43.2041317
  },
  "399": {
    "address": "RUA PROFESSOR HILARIÃO DA ROCHA 118, Rio de Janeiro - RJ, Brasil",
    "name": "COLÉGIO NOTRE DAME",
    "lat": -22.7981569,
    "lon": -43.1864142
  },
  "400": {
    "address": "ESTRADA CORONEL PEDRO CORREA, 1201, Rio de Janeiro - RJ, Brasil",
    "name": "COLÉGIO NÓS - BARRA",
    "lat": -22.9717899,
    "lon": -43.3872395
  },
  "401": {
    "address": "AVENIDA JAIME POGGI, 100, Rio de Janeiro - RJ, Brasil",
    "name": "COLÉGIO OBJETIVO BARRA",
    "lat": -22.9677119,
    "lon": -43.3914629
  },
  "402": {
    "address": "RUA CONDE DE BONFIM 774, Rio de Janeiro - RJ, Brasil",
    "name": "COLÉGIO PALAS (R. CONDE DE BONFIM)",
    "lat": -22.9341277,
    "lon": -43.2427783
  },
  "403": {
    "address": "RUA JOSÉ HIGINO 273, Rio de Janeiro - RJ, Brasil",
    "name": "COLÉGIO PALAS (R. JOSÉ HIGINO)",
    "lat": -22.9249824,
    "lon": -43.2402593
  },
  "404": {
    "address": "RUA JOSÉ HIGINO 247, Rio de Janeiro - RJ, Brasil",
    "name": "COLÉGIO PALAS (R. JOSÉ HIGINO, 247)",
    "lat": -22.9249824,
    "lon": -43.2402593
  },
  "405": {
    "address": "RUA SAO RAFAEL 38, Rio de Janeiro - RJ, Brasil",
    "name": "COLÉGIO PALAS (R. SÃO RAFAEL)",
    "lat": -22.854157,
    "lon": -43.6193847
  },
  "406": {
    "address": "AV. DOS EUCALIPTOS, 90, Rio de Janeiro - RJ, Brasil",
    "name": "COLÉGIO PALAS - UNIDADE RECREIO",
    "lat": -23.0100471,
    "lon": -43.4626434
  },
  "407": {
    "address": "RUA HUMAITÁ, 80, Rio de Janeiro - RJ, Brasil",
    "name": "COLÉGIO PEDRO II (PEDRÃO)",
    "lat": -22.9556558,
    "lon": -43.198905
  },
  "408": {
    "address": "AV. MAL. FLORIANO, 80, CENTRO,  Rio de Janeiro - RJ, Brasil",
    "name": "COLÉGIO PEDRO II - UNIDADE CENTRO (ANTIGA ESTÁCIO)",
    "lat": -22.9015122,
    "lon": -43.1845053
  },
  "409": {
    "address": "AV. MARECHAL FLORIANO, 80,  Rio de Janeiro - RJ, Brasil",
    "name": "COLÉGIO PEDRO II - UNIDADE CENTRO",
    "lat": -22.9015122,
    "lon": -43.1845053
  },
  "410": {
    "address": "RUA BERNARDO DE VASCONCELOS, 941, Rio de Janeiro - RJ, Brasil",
    "name": "COLÉGIO PEDRO II - UNIDADE II",
    "lat": -22.8756882,
    "lon": -43.4393665
  },
  "411": {
    "address": "CAMPO DE SÃO CRISTÓVÃO, 177,  Rio de Janeiro - RJ, Brasil",
    "name": "COLÉGIO PEDRO II - UNIDADE SÃO CRISTOVÃO II",
    "lat": -22.8961829,
    "lon": -43.2210547
  },
  "412": {
    "address": "RUA PIRAÚBA, S/N,  Rio de Janeiro - RJ, Brasil",
    "name": "COLÉGIO PEDRO II - UNIDADE SÃO CRISTOVÃO III",
    "lat": -22.9007604,
    "lon": -43.2222192
  },
  "413": {
    "address": "RUA SÃO FRANCISCO XAVIER, 204/208, Rio de Janeiro - RJ, Brasil",
    "name": "COLÉGIO PEDRO II",
    "lat": -22.906657,
    "lon": -43.2397091
  },
  "414": {
    "address": "RUA BARÃO DE MESQUITA, 164, Rio de Janeiro - RJ, Brasil",
    "name": "COLÉGIO PENSI - UNIDADE TIJUCA II",
    "lat": -22.916844,
    "lon": -43.2290711
  },
  "415": {
    "address": "RUA SOUSA FRANCO 179, Rio de Janeiro - RJ, Brasil",
    "name": "COLÉGIO PENSI - VILA ISABEL",
    "lat": -22.917228,
    "lon": -43.2455503
  },
  "416": {
    "address": "RUA MARQUÊS DE ABRANTES, 55, Rio de Janeiro - RJ, Brasil",
    "name": "COLÉGIO PENSI",
    "lat": -22.9353835,
    "lon": -43.1766288
  },
  "417": {
    "address": "ESTRADA INTENDENTE MAGALHÃES, 655, Rio de Janeiro - RJ, Brasil",
    "name": "COLÉGIO PENTÁGONO",
    "lat": -22.8772567,
    "lon": -43.3664417
  },
  "418": {
    "address": "AV. FREDERICO FAULHABER 688, Rio de Janeiro - RJ, Brasil",
    "name": "COLÉGIO PERCEPÇÃO CEUS",
    "lat": -22.8955325,
    "lon": -43.4205929
  },
  "419": {
    "address": "RUA GUIRARÉIA, 276, Rio de Janeiro - RJ, Brasil",
    "name": "COLÉGIO PERCEPÇÃO",
    "lat": -22.8457129,
    "lon": -43.3377292
  },
  "420": {
    "address": "AVENIDA PREFEITO DULCÍDIO CARDOSO, 2000, Rio de Janeiro - RJ, Brasil",
    "name": "COLÉGIO PH - BARRA DA TIJUCA",
    "lat": -23.0111275,
    "lon": -43.4218654
  },
  "421": {
    "address": "AV. BARTOLOMEU MITRE 1110, Rio de Janeiro - RJ, Brasil",
    "name": "COLÉGIO PH JOCKEY",
    "lat": -22.9862321,
    "lon": -43.2226587
  },
  "422": {
    "address": "RUA HILÁRIO DE GOUVEIA, 43,  Rio de Janeiro - RJ, Brasil",
    "name": "COLÉGIO PINHEIRO GUIMARÃES - HG 43",
    "lat": -22.9690297,
    "lon": -43.1834416
  },
  "423": {
    "address": "RUA SILVEIRA MARTINS 151, Rio de Janeiro - RJ, Brasil",
    "name": "COLÉGIO PINHEIRO GUIMARÃES",
    "lat": -22.9258604,
    "lon": -43.1779724
  },
  "424": {
    "address": "RUA AIMORÉ, 239, Rio de Janeiro - RJ, Brasil",
    "name": "COLÉGIO PINHEIRO",
    "lat": -22.8418129,
    "lon": -43.2826702
  },
  "425": {
    "address": "RUA XINGU, 125, Rio de Janeiro - RJ, Brasil",
    "name": "COLÉGIO PONTO DE ENSINO",
    "lat": -22.9372712,
    "lon": -43.3412788
  },
  "426": {
    "address": "RUA ARAGUAIA 204, Rio de Janeiro - RJ, Brasil",
    "name": "COLÉGIO PRIMUS",
    "lat": -22.9134433,
    "lon": -43.0877125
  },
  "427": {
    "address": "RUA FRANCISCO REAL, 325, Rio de Janeiro - RJ, Brasil",
    "name": "COLÉGIO PRIORIDADE HUM",
    "lat": -22.8831664,
    "lon": -43.4516104
  },
  "428": {
    "address": "RUA JOAQUIM PINHEIRO, 105, Rio de Janeiro - RJ, Brasil",
    "name": "COLÉGIO QI - UNIDADE FREGUESIA",
    "lat": -22.933968,
    "lon": -43.3354624
  },
  "429": {
    "address": "RUA MUANÁ, 105, Rio de Janeiro - RJ, Brasil",
    "name": "COLÉGIO REDE EEEPV",
    "lat": -22.8334083,
    "lon": -43.2902122
  },
  "430": {
    "address": "ESTRADA RODRIGUES CALDAS, 2280, Rio de Janeiro - RJ, Brasil",
    "name": "COLÉGIO RESSURREIÇÃO - UNIDADE TAQUARA",
    "lat": -22.932185,
    "lon": -43.3937357
  },
  "431": {
    "address": "RUA LINO TEIXEIRA, N 112, Rio de Janeiro - RJ, Brasil",
    "name": "COLÉGIO ROSA DE SARON",
    "lat": -22.8956458,
    "lon": -43.252654
  },
  "432": {
    "address": "RUA SAMPAIO VIANA 184, Rio de Janeiro - RJ, Brasil",
    "name": "COLÉGIO SAGRES",
    "lat": -22.9230556,
    "lon": -43.2109296
  },
  "433": {
    "address": "ESTRADA DO AÇUDE, 250, Rio de Janeiro - RJ, Brasil",
    "name": "COLÉGIO SANTA MARCELINA",
    "lat": -22.9639927,
    "lon": -43.2835551
  },
  "434": {
    "address": "AV. DOS DEMOCRÁTICOS, 1251, Rio de Janeiro - RJ, Brasil",
    "name": "COLÉGIO SANTA MÔNICA",
    "lat": -22.8730651,
    "lon": -43.2586864
  },
  "435": {
    "address": "RUA SÃO FRANCISCO XAVIER 11, Rio de Janeiro - RJ, Brasil",
    "name": "COLÉGIO SANTA TERESA DE JESUS",
    "lat": -22.9220044,
    "lon": -43.2225033
  },
  "436": {
    "address": "RUA JOSÉ LINHARES 88, Rio de Janeiro - RJ, Brasil",
    "name": "COLÉGIO SANTO AGOSTINHO",
    "lat": -22.982263,
    "lon": -43.2218767
  },
  "437": {
    "address": "RUA RINO LEVI, 485, Rio de Janeiro - RJ, Brasil",
    "name": "COLÉGIO SANTO AGOSTINHO",
    "lat": -23.0017891,
    "lon": -43.3833114
  },
  "438": {
    "address": "RUA DO CATETE 113, Rio de Janeiro - RJ, Brasil",
    "name": "COLÉGIO SANTO ANTÔNIO MARIA ZACCARIA",
    "lat": -22.9243116,
    "lon": -43.17617
  },
  "439": {
    "address": "RUA SÃO CLEMENTE, 226, Rio de Janeiro - RJ, Brasil",
    "name": "COLÉGIO SANTO INÁCIO",
    "lat": -22.9491036,
    "lon": -43.1903768
  },
  "440": {
    "address": "AVENIDA VINTE E OITO DE SETEMBRO 156, Rio de Janeiro - RJ, Brasil",
    "name": "COLÉGIO SANTOS DUMONT",
    "lat": -22.8652332,
    "lon": -42.2888664
  },
  "441": {
    "address": "RUA RODRIGO CABRAL, 73, Rio de Janeiro - RJ, Brasil",
    "name": "COLÉGIO SESON",
    "lat": -22.8157197,
    "lon": -43.3403633
  },
  "442": {
    "address": "AVENIDA ERNANI CARDOSO, 335, Rio de Janeiro - RJ, Brasil",
    "name": "COLÉGIO SOUZA MARQUES",
    "lat": -22.8822427,
    "lon": -43.3334392
  },
  "443": {
    "address": "ESTRADA HENRIQUE DE MELO, 1289, Rio de Janeiro - RJ, Brasil",
    "name": "COLÉGIO STAFFORD",
    "lat": -22.8678704,
    "lon": -43.3538513
  },
  "444": {
    "address": "ESTRADA DO VIDIGAL, 75, Rio de Janeiro - RJ, Brasil",
    "name": "COLÉGIO STELLA MARIS",
    "lat": -22.9912843,
    "lon": -43.2331291
  },
  "445": {
    "address": "AVENIDA LUSITÂNIA 169, Rio de Janeiro - RJ, Brasil",
    "name": "COLÉGIO SÃO FABIANO - ZERO HUM",
    "lat": -22.8302557,
    "lon": -43.2805959
  },
  "446": {
    "address": "RUA CLARIMUNDO DE MELO, 79, Rio de Janeiro - RJ, Brasil",
    "name": "COLÉGIO SÃO JUDAS TADEU",
    "lat": -22.8960649,
    "lon": -43.3052309
  },
  "447": {
    "address": "RUA COSME VELHO 241, Rio de Janeiro - RJ, Brasil",
    "name": "COLÉGIO SÃO VICENTE DE PAULO",
    "lat": -22.9400333,
    "lon": -43.1960189
  },
  "448": {
    "address": "RUA MARQUÊS DE SÃO VICENTE, 331, Rio de Janeiro - RJ, Brasil",
    "name": "COLÉGIO TERESIANO (1)",
    "lat": -22.9821098,
    "lon": -43.2393331
  },
  "449": {
    "address": "RUA MARQUÊS DE SÃO VICENTE, 331, Rio de Janeiro - RJ, Brasil",
    "name": "COLÉGIO TERESIANO",
    "lat": -22.9821098,
    "lon": -43.2393331
  },
  "450": {
    "address": "RUA ESPERANÇA, 9, Rio de Janeiro - RJ, Brasil",
    "name": "COLÉGIO VARGEM GRANDE",
    "lat": -22.981038,
    "lon": -43.4907178
  },
  "451": {
    "address": "AV GENERAL FELICÍSSIMO CARDOSO, 500, Rio de Janeiro - RJ, Brasil",
    "name": "COLÉGIO VEIGA DE ALMEIDA",
    "lat": -23.0041719,
    "lon": -43.3528267
  },
  "452": {
    "address": "RUA TABORARI, 372, Rio de Janeiro - RJ, Brasil",
    "name": "COLÉGIO VIP - BRÁS DE PINA",
    "lat": -22.8247797,
    "lon": -43.2865869
  },
  "453": {
    "address": "RUA BORORÓ N. 36, Rio de Janeiro - RJ, Brasil",
    "name": "COLÉGIO VITAL GONÇALVES",
    "lat": -22.863882,
    "lon": -43.2928227
  },
  "454": {
    "address": "ESTRADA DO RIO GRANDE, 1159, Rio de Janeiro - RJ, Brasil",
    "name": "COLÉGIO ÍCONE KIDS",
    "lat": -22.9189662,
    "lon": -43.3817906
  },
  "455": {
    "address": "RUA CARDOSO DE MORAIS 528, Rio de Janeiro - RJ, Brasil",
    "name": "COLÉGIO-CURSO GEL",
    "lat": -22.8632899,
    "lon": -43.2540863
  },
  "456": {
    "address": "RUA ARAÚJO LIMA 139, Rio de Janeiro - RJ, Brasil",
    "name": "COLÉGIO-CURSO MARTINSINHO - VILA ISABEL",
    "lat": -22.9220149,
    "lon": -43.2416947
  },
  "457": {
    "address": "ESTRADA DOS BANDEIRANTES, 12999, Rio de Janeiro - RJ, Brasil",
    "name": "COLÉGIO-CURSO TAMANDARÉ",
    "lat": -22.9927747,
    "lon": -43.4472859
  },
  "458": {
    "address": "RUA BERTHA LUTZ, 85, Rio de Janeiro - RJ, Brasil",
    "name": "COMPLEXO ESPORTIVO DA ROCINHA/FUNDAÇÃO CECIERJ",
    "lat": -22.992862,
    "lon": -43.2523344
  },
  "459": {
    "address": "AV. TREVO DAS MISSOES, 18, Rio de Janeiro - RJ, Brasil",
    "name": "COMUNIDADE CATÓLICA MARANATHÁ",
    "lat": null,
    "lon": null
  },
  "460": {
    "address": "AV. LÚCIO COSTA, 3600, Rio de Janeiro - RJ, Brasil",
    "name": "CONDOMÍNIO ATLÂNTICO SUL",
    "lat": -23.0175908,
    "lon": -43.4242417
  },
  "461": {
    "address": "RUA PRUDENTE DE MORAIS 1597, Rio de Janeiro - RJ, Brasil",
    "name": "COUNTRY CLUB",
    "lat": -22.984977,
    "lon": -43.2122956
  },
  "462": {
    "address": "AV. MIN. EDGARD ROMERO, 400, Rio de Janeiro - RJ, Brasil",
    "name": "CRAS - ZOZIMO BARROZO DO AMARAL",
    "lat": null,
    "lon": null
  },
  "463": {
    "address": "RUA CAPITÃO ALIATAR MARTINS, 211, Rio de Janeiro - RJ, Brasil",
    "name": "CRAS RUBENS CORRÊA - CENTRO DE REFERÊNCIA DA ASSISTÊNCIA SOCIAL",
    "lat": -22.8399269,
    "lon": -43.3199346
  },
  "464": {
    "address": "RUA BARÃO DE BANANAL, 48, Rio de Janeiro - RJ, Brasil",
    "name": "CRECHE ALPHABETO",
    "lat": null,
    "lon": null
  },
  "465": {
    "address": "RUA HENRIQUE OSWALD, 155, Rio de Janeiro - RJ, Brasil",
    "name": "CRECHE CRIATIVA - HO 155",
    "lat": -22.9647901,
    "lon": -43.193162
  },
  "466": {
    "address": "RUA JOAQUIM COUTINHO CAVALCANTE, S/N, Rio de Janeiro - RJ, Brasil",
    "name": "CRECHE MUNICIPAL MULHERES DO QUAFÁ",
    "lat": null,
    "lon": null
  },
  "467": {
    "address": "RUA CINCO DE JULHO, 82,  Rio de Janeiro - RJ, Brasil",
    "name": "CRECHE PRIMEIRA CLASSE - CJ 82",
    "lat": -22.9710586,
    "lon": -43.1902224
  },
  "468": {
    "address": "RUA DIVISORIA 48, Rio de Janeiro - RJ, Brasil",
    "name": "CT-RIO - CENTRO TECNOLOGICO RIO",
    "lat": -22.8656724,
    "lon": -43.3631982
  },
  "469": {
    "address": "AVENIDA DOM HELDER CÂMARA 5186, Rio de Janeiro - RJ, Brasil",
    "name": "CULTURA INGLESA - UNIDADE NORTE SHOPPING",
    "lat": -22.8864301,
    "lon": -43.3072181
  },
  "470": {
    "address": "RUA MARQUES DE ABRANTES,52, Rio de Janeiro - RJ, Brasil",
    "name": "CULTURA INGLESA FLAMENGO",
    "lat": -22.9352456,
    "lon": -43.1773939
  },
  "471": {
    "address": "RUA APIACÁS, 184, Rio de Janeiro - RJ, Brasil",
    "name": "CULTURA INGLESA",
    "lat": -22.9215529,
    "lon": -43.3726271
  },
  "472": {
    "address": "RUA ANDRADE NEVES 315, Rio de Janeiro - RJ, Brasil",
    "name": "CURSO ALIANÇA FRANCESA",
    "lat": -22.9324777,
    "lon": -43.2380749
  },
  "473": {
    "address": "RUA COMANDANTE COIMBRA 35, Rio de Janeiro - RJ, Brasil",
    "name": "CURSO HERMANN ANEXO",
    "lat": -22.8295469,
    "lon": -43.2808553
  },
  "474": {
    "address": "RUA URANOS 1483, Rio de Janeiro - RJ, Brasil",
    "name": "CURSO HERMANN",
    "lat": -22.8466467,
    "lon": -43.2675799
  },
  "475": {
    "address": "RUA DR. PACHE DE FARIA 68, Rio de Janeiro - RJ, Brasil",
    "name": "CURSO PENSI MARTINS",
    "lat": -22.9043476,
    "lon": -43.2778334
  },
  "476": {
    "address": "PRAÇA LAGOA MIRIM S/N, Rio de Janeiro - RJ, Brasil",
    "name": "CVT - QUITUNGO",
    "lat": -22.8374654,
    "lon": -43.3020288
  },
  "477": {
    "address": "PRAÇA FLORIANO, S/N,  Rio de Janeiro - RJ, Brasil",
    "name": "CÂMARA MUNICIPAL DO RJ",
    "lat": -22.9094974,
    "lon": -43.1763519
  },
  "478": {
    "address": "AV. BRASIL, 13350, Rio de Janeiro - RJ, Brasil",
    "name": "DETRAN/RJ - PARADA DE LUCAS",
    "lat": -22.813961,
    "lon": -43.295531
  },
  "479": {
    "address": "PRAÇA BARÃO DE DRUMOND, 17, Rio de Janeiro - RJ, Brasil",
    "name": "DEVOÇÃO PARTICULAR AO DIVINO ESPÍRITO SANTO",
    "lat": null,
    "lon": null
  },
  "480": {
    "address": "RUA ARISTIDES CAIRE 218, Rio de Janeiro - RJ, Brasil",
    "name": "DIVISAO LOCAL DE SEGUROS SOCIAIS DO INSS",
    "lat": -22.8992468,
    "lon": -43.2784531
  },
  "481": {
    "address": "RUA PROFESSOR PLÍNIO BASTOS, 631, Rio de Janeiro - RJ, Brasil",
    "name": "E. M. ANÍBAL FREIRE",
    "lat": -22.8406855,
    "lon": -43.2672568
  },
  "482": {
    "address": "PRAÇA CAÍ S/N, Rio de Janeiro - RJ, Brasil",
    "name": "E. M. ARIOSTO ESPINHEIRA",
    "lat": -22.8340596,
    "lon": -43.2711581
  },
  "483": {
    "address": "PRAÇA RAMOS FIGUEIRA 20, Rio de Janeiro - RJ, Brasil",
    "name": "E. M. BERLIM",
    "lat": -22.8478384,
    "lon": -43.2612548
  },
  "484": {
    "address": "RUA ANDRÉ AZEVEDO 87, Rio de Janeiro - RJ, Brasil",
    "name": "E. M. BRASIL",
    "lat": -22.8431909,
    "lon": -43.2622157
  },
  "485": {
    "address": "RUA DO COUTO, 91, Rio de Janeiro - RJ, Brasil",
    "name": "E. M. CIENTISTA MÁRIO KROEFF",
    "lat": -22.8366709,
    "lon": -43.274144
  },
  "486": {
    "address": "AV. POSTAL, 49, Rio de Janeiro - RJ, Brasil",
    "name": "E. M. CLOTILDE GUIMARÃES",
    "lat": -22.8529792,
    "lon": -43.2481836
  },
  "487": {
    "address": "RUA CONDE DE AGROLONGO, 1246, Rio de Janeiro - RJ, Brasil",
    "name": "E. M. CONDE DE AGROLONGO",
    "lat": -22.8316423,
    "lon": -43.2757207
  },
  "488": {
    "address": "AV. TEIXEIRA DE CASTRO, 407, Rio de Janeiro - RJ, Brasil",
    "name": "E. M. DILERMANDO CRUZ",
    "lat": -22.8503506,
    "lon": -43.2485679
  },
  "489": {
    "address": "RUA NOSSA SENHORA DAS GRAÇAS 699 FUNDOS, Rio de Janeiro - RJ, Brasil",
    "name": "E. M. EDMUNDO LINS",
    "lat": null,
    "lon": null
  },
  "490": {
    "address": "AV. SCHULTZ WENCK S/N, Rio de Janeiro - RJ, Brasil",
    "name": "E. M. FRANCISCO JOSÉ OLIVEIRA VIANA",
    "lat": null,
    "lon": null
  },
  "491": {
    "address": "PRAÇA ALMEIDA GARRET S/N, Rio de Janeiro - RJ, Brasil",
    "name": "E. M. JOÃO DE DEUS",
    "lat": null,
    "lon": null
  },
  "492": {
    "address": "PRAÇA ESPLANADA S/N, Rio de Janeiro - RJ, Brasil",
    "name": "E. M. MINISTRO AFRÂNIO COSTA",
    "lat": -22.8255094,
    "lon": -43.2785307
  },
  "493": {
    "address": "ESTRADA DO ENGENHO DA PEDRA, 528, Rio de Janeiro - RJ, Brasil",
    "name": "E. M. NERVAL DE GOUVEIA",
    "lat": -22.8453164,
    "lon": -43.2543942
  },
  "494": {
    "address": "RUA SANTA ENGRÁCIA, S/N, Rio de Janeiro - RJ, Brasil",
    "name": "E. M. PRESIDENTE EURICO DUTRA",
    "lat": -22.8381247,
    "lon": -43.2676753
  },
  "495": {
    "address": "ESTRADA PORTO VELHO, S/N, Rio de Janeiro - RJ, Brasil",
    "name": "E. M. RORAIMA",
    "lat": -22.8237649,
    "lon": -43.2963182
  },
  "496": {
    "address": "RUA TAILANDIA 160, Rio de Janeiro - RJ, Brasil",
    "name": "E. M. SAO PAULO",
    "lat": -22.82715,
    "lon": -43.2877396
  },
  "497": {
    "address": "PRAÇA ANTÔNIO JOSÉ DE ALMEIDA S/N, Rio de Janeiro - RJ, Brasil",
    "name": "E. M. SUIÇA",
    "lat": -22.8285591,
    "lon": -43.2786993
  },
  "498": {
    "address": "AV. ALMIRANTE FRONTIN 50, Rio de Janeiro - RJ, Brasil",
    "name": "E. M. TENENTE GENERAL NAPION",
    "lat": -22.8468901,
    "lon": -43.2466787
  },
  "499": {
    "address": "RUA HESPÉRIA, 15, Rio de Janeiro - RJ, Brasil",
    "name": "E.D.I JOAQUIM VENANCIO",
    "lat": null,
    "lon": null
  },
  "500": {
    "address": "RUA GABRIEL MILITAO MACHADO S/N, Rio de Janeiro - RJ, Brasil",
    "name": "E.M. BERTHA LUTZ",
    "lat": -22.9815491,
    "lon": -43.6666367
  },
  "501": {
    "address": "ESTRADA DO MAGARÇA, 9183, Rio de Janeiro - RJ, Brasil",
    "name": "E.M. ENGENHEIRO GASTÃO RANGEL",
    "lat": -22.9514784,
    "lon": -43.6061701
  },
  "502": {
    "address": "RUA JOSÉ FERNANDES, S/N, Rio de Janeiro - RJ, Brasil",
    "name": "E.M. FELIPE CAMARÃO",
    "lat": -22.9806443,
    "lon": -43.6978462
  },
  "503": {
    "address": "ESTRADA DE SEPETIBA, 2875, Rio de Janeiro - RJ, Brasil",
    "name": "E.M. JULIO CESARIO DE MELLO",
    "lat": -22.9567671,
    "lon": -43.6893035
  },
  "504": {
    "address": "RUA JOSE BALDINO S/N, Rio de Janeiro - RJ, Brasil",
    "name": "E.M. NELSON ROMERO",
    "lat": -22.973454,
    "lon": -43.6987657
  },
  "505": {
    "address": "RUA PIRAÍ DO SUL  S/N BLOCO 2, Rio de Janeiro - RJ, Brasil",
    "name": "E.M. PROF. CARMO REIS NETO",
    "lat": null,
    "lon": null
  },
  "506": {
    "address": "RUA MARQUES DOS SANTOS,  ( VIA A 4 )  S/N - SANTA VERIDIANA, Rio de Janeiro - RJ, Brasil",
    "name": "E.M. PROF. FRANCISCO JOSE ANTONIO",
    "lat": null,
    "lon": null
  },
  "507": {
    "address": "RUA ALEXIS CARREL, N 1, BRISA, Rio de Janeiro - RJ, Brasil",
    "name": "E.M. PROF. JORGE LUIZ ITABORAÍ DE ALMEIDA",
    "lat": -22.9746826,
    "lon": -43.6691425
  },
  "508": {
    "address": "ESTRADA DO MAGARÇA 9.183, Rio de Janeiro - RJ, Brasil",
    "name": "E.M. PROF. MARIA HELENA SAMPAIO MARQUES",
    "lat": -22.9514784,
    "lon": -43.6061701
  },
  "509": {
    "address": "AV. AREIA BRANCA, 1510, Rio de Janeiro - RJ, Brasil",
    "name": "E.M. TENENTE RENATO CESAR",
    "lat": -22.935753,
    "lon": -43.6883557
  },
  "510": {
    "address": "ESTRADA DE SEPETIBA 3.175, BL 1, Rio de Janeiro - RJ, Brasil",
    "name": "E.M. WALQUIR PEREIRA",
    "lat": null,
    "lon": null
  },
  "511": {
    "address": "RUA CAMARATUBA, 59, Rio de Janeiro - RJ, Brasil",
    "name": "EDI DEBRET",
    "lat": -22.8798819,
    "lon": -43.3674014
  },
  "512": {
    "address": "PRAÇA ESPLANADA S/N, Rio de Janeiro - RJ, Brasil",
    "name": "EDI EDMUNDO DA LUZ PINTO",
    "lat": -22.8255094,
    "lon": -43.2785307
  },
  "513": {
    "address": "RUA CAPITÃO MENEZES, 986, Rio de Janeiro - RJ, Brasil",
    "name": "EDI EVARISTO DA VEIGA",
    "lat": -22.8911716,
    "lon": -43.3492304
  },
  "514": {
    "address": "RUA PIRICUMÃ 100, Rio de Janeiro - RJ, Brasil",
    "name": "EDI GOETHE",
    "lat": -22.8262051,
    "lon": -43.2874262
  },
  "515": {
    "address": "RUA GÊNOVA, 199, Rio de Janeiro - RJ, Brasil",
    "name": "EDI MEDALHISTA PARALÍMPICO DANIEL MARTINS",
    "lat": -22.8350306,
    "lon": -43.3931808
  },
  "516": {
    "address": "RUA CARLINA, S/N, Rio de Janeiro - RJ, Brasil",
    "name": "EDI MIGUEL COUTO",
    "lat": -22.841465,
    "lon": -43.2645814
  },
  "517": {
    "address": "AV. ETIÓPIA, S/N, Rio de Janeiro - RJ, Brasil",
    "name": "EDI NORBERTINA DE SOUZA GOUVEIA",
    "lat": -22.8565812,
    "lon": -43.4897286
  },
  "518": {
    "address": "RUA SILVANIA, S/N - JARDIM MARAVILHA, Rio de Janeiro - RJ, Brasil",
    "name": "EDI PADRE CARLOS HENRIQUE DE SOUZA(AO LADO DO CIEP POSSEIRO MARIO VAZ)",
    "lat": -22.9692265,
    "lon": -43.6110231
  },
  "519": {
    "address": "RUA NOSSA SENHORA DAS GRAÇAS 699, Rio de Janeiro - RJ, Brasil",
    "name": "EDI PIERRE JANET",
    "lat": -22.9057306,
    "lon": -43.0817753
  },
  "520": {
    "address": "RUA ROQUE BARBOSA, S/N, Rio de Janeiro - RJ, Brasil",
    "name": "EDI PROFESSOR REINALDO JOSÉ DE ARAGÃO BARBOSA",
    "lat": -22.853939,
    "lon": -43.4627726
  },
  "521": {
    "address": "RUA SEBASTIAO SERRATO, 167, Rio de Janeiro - RJ, Brasil",
    "name": "EDUCANDARIO EDITH DOS SANTOS",
    "lat": -22.9701399,
    "lon": -43.7038956
  },
  "522": {
    "address": "RUA ARGENTINA, 158,  Rio de Janeiro - RJ, Brasil",
    "name": "EDUCANDÁRIO GONÇALVES DE ARAÚJO",
    "lat": -22.8919917,
    "lon": -43.225499
  },
  "523": {
    "address": "RUA OLIVEIRA ALVARES 253, Rio de Janeiro - RJ, Brasil",
    "name": "EDUCANDÁRIO LUSO",
    "lat": -22.8420317,
    "lon": -43.3274551
  },
  "524": {
    "address": "RUA GETÚLIO, 72, Rio de Janeiro - RJ, Brasil",
    "name": "EDUCANDÁRIO MADRE GUELL",
    "lat": -22.890159,
    "lon": -43.2768888
  },
  "525": {
    "address": "RUA PARANAPANEMA 758, Rio de Janeiro - RJ, Brasil",
    "name": "EDUCANDÁRIO NOSSA SENHORA DAS DORES",
    "lat": -22.8499468,
    "lon": -43.2718249
  },
  "526": {
    "address": "RUA ANDRÉ ROCHA, 1083, Rio de Janeiro - RJ, Brasil",
    "name": "ELITE REDE DE ENSINO - TAQUARA",
    "lat": -22.9464017,
    "lon": -43.3792321
  },
  "527": {
    "address": "AV. PRESIDENTE VARGAS, 3077,  Rio de Janeiro - RJ, Brasil",
    "name": "EMPRESA BRASILEIRA DE CORREIOS E TELÉGRAFOS",
    "lat": -22.901204,
    "lon": -43.1796753
  },
  "528": {
    "address": "RUA DA MATRIZ, 16, Rio de Janeiro - RJ, Brasil",
    "name": "ESCOLA ADVENTISTA BOTAFOGO",
    "lat": -22.951137,
    "lon": -43.1928738
  },
  "529": {
    "address": "RUA SÃO CLEMENTE, 388, Rio de Janeiro - RJ, Brasil",
    "name": "ESCOLA ALEMÃ CORCOVADO",
    "lat": -22.9505031,
    "lon": -43.1949796
  },
  "530": {
    "address": "ESTRADA DA GÁVEA, 132, Rio de Janeiro - RJ, Brasil",
    "name": "ESCOLA AMERICANA DO RIO DE JANEIRO - CAMPUS GÁVEA",
    "lat": -22.9837849,
    "lon": -43.2451248
  },
  "531": {
    "address": "AV. DOM HÉLDER CÂMARA, 6845, Rio de Janeiro - RJ, Brasil",
    "name": "ESCOLA AMPLA",
    "lat": -22.8824335,
    "lon": -43.2757906
  },
  "532": {
    "address": "RUA ARGOIM S/N - VILA NOVA, Rio de Janeiro - RJ, Brasil",
    "name": "ESCOLA BENJAMIN FRANKLIN",
    "lat": -22.885288,
    "lon": -43.5777428
  },
  "533": {
    "address": "RUA MIRITIBA 317, Rio de Janeiro - RJ, Brasil",
    "name": "ESCOLA BRETANHA",
    "lat": -22.7897116,
    "lon": -43.1674156
  },
  "534": {
    "address": "AVENIDA PASTEUR 429, Rio de Janeiro - RJ, Brasil",
    "name": "ESCOLA BRITÂNICA",
    "lat": -22.9537169,
    "lon": -43.169109
  },
  "535": {
    "address": "RUA PETRÔNIO CASTRO SOUZA, 495, Rio de Janeiro - RJ, Brasil",
    "name": "ESCOLA CAROLINA PATRÍCIO - UNIDADE GOLFE OLÍMPICO",
    "lat": -22.999332,
    "lon": -43.4100894
  },
  "536": {
    "address": "RUA FRANCISCO OTAVIANO 105, Rio de Janeiro - RJ, Brasil",
    "name": "ESCOLA CASTELNUOVO",
    "lat": -22.987398,
    "lon": -43.1920844
  },
  "537": {
    "address": "RUA JORNALISTA SABINO LEMOS S/N - SÃO BASÍLIO, Rio de Janeiro - RJ, Brasil",
    "name": "ESCOLA DALILA TAVARES",
    "lat": null,
    "lon": null
  },
  "538": {
    "address": "RUA BAMBINA 59, Rio de Janeiro - RJ, Brasil",
    "name": "ESCOLA DINAMIS",
    "lat": -22.9454382,
    "lon": -43.1853836
  },
  "539": {
    "address": "ESTRADA SANTA MARIA 850 - VILA NOVA, Rio de Janeiro - RJ, Brasil",
    "name": "ESCOLA DOM BOSCO",
    "lat": -22.8937736,
    "lon": -43.584501
  },
  "540": {
    "address": "RUA GAGO COUTINHO 14, Rio de Janeiro - RJ, Brasil",
    "name": "ESCOLA EDEM",
    "lat": -22.9303881,
    "lon": -43.1803211
  },
  "541": {
    "address": "AVENIDA JOSÉ SILVA DE AZEVEDO NETO, 309, Rio de Janeiro - RJ, Brasil",
    "name": "ESCOLA ELEVA",
    "lat": -22.9881813,
    "lon": -43.3610212
  },
  "542": {
    "address": "RUA GENERAL SEVERIANO, 159, Rio de Janeiro - RJ, Brasil",
    "name": "ESCOLA ELEVA",
    "lat": -22.9543919,
    "lon": -43.1792811
  },
  "543": {
    "address": "RUA IVO DO PRADO 361, Rio de Janeiro - RJ, Brasil",
    "name": "ESCOLA ESPECIAL MUNICIPAL MARIA MONTESSORI",
    "lat": -22.8992852,
    "lon": -43.5653993
  },
  "544": {
    "address": "RUA BARÃO, 1180, Rio de Janeiro - RJ, Brasil",
    "name": "ESCOLA ESPECIAL MUNICIPAL PROF MARIA THEREZINHA DE CARVALHO MACHADO",
    "lat": -22.8998032,
    "lon": -43.3508119
  },
  "545": {
    "address": "RUA DOS PRAZERES S/N, Rio de Janeiro - RJ, Brasil",
    "name": "ESCOLA ESTADUAL BRIGADEIRO SCHORDCHT",
    "lat": -22.9292817,
    "lon": -43.3699725
  },
  "546": {
    "address": "AV. MINISTRO EDGARD ROMERO 491, Rio de Janeiro - RJ, Brasil",
    "name": "ESCOLA ESTADUAL DE EDUCAÇÃO CARMELA DUTRA",
    "lat": -22.8702947,
    "lon": -43.3354512
  },
  "547": {
    "address": "RUA JOANA FONTOURA 20, Rio de Janeiro - RJ, Brasil",
    "name": "ESCOLA ESTADUAL OLGA BENARIO PRESTES",
    "lat": -22.861835,
    "lon": -43.2597639
  },
  "548": {
    "address": "RUA CÂNDIDO BENÍCIO, 826, Rio de Janeiro - RJ, Brasil",
    "name": "ESCOLA ESTADUAL PROF MARIA THEREZINHA DE CARVALHO MACHADO",
    "lat": -22.9157074,
    "lon": -43.3617637
  },
  "549": {
    "address": "RUA COSTA FILHO 500, Rio de Janeiro - RJ, Brasil",
    "name": "ESCOLA ESTADUAL PROFESSOR JOSE ACCIOLI",
    "lat": -22.8647212,
    "lon": -43.3682852
  },
  "550": {
    "address": "AV. EPITÁCIO PESSOA 474, Rio de Janeiro - RJ, Brasil",
    "name": "ESCOLA HENRIQUE DODSWORTH",
    "lat": -22.9767761,
    "lon": -43.1993197
  },
  "551": {
    "address": "RUA DONA MARIANA 148, Rio de Janeiro - RJ, Brasil",
    "name": "ESCOLA JOAQUIM NABUCO",
    "lat": -22.9546187,
    "lon": -43.1886991
  },
  "552": {
    "address": "RUA JANGADEIROS 39, Rio de Janeiro - RJ, Brasil",
    "name": "ESCOLA MARILIA DE DIRCEU",
    "lat": -22.9838103,
    "lon": -43.1970562
  },
  "553": {
    "address": "RUA FERNANDES LEAO 114, Rio de Janeiro - RJ, Brasil",
    "name": "ESCOLA MONTESSORIANA PIRRALHO",
    "lat": -22.8585871,
    "lon": -43.3230831
  },